{"bins":[{"_id":"5f8c7236077fd8965d499260","longitude":144.6601949611,"latitude":-37.9018111376,"address":"Bendigo Bank G Werribee - General Waste","capacity":100,"threshold":6,"currentFullness":0,"isSmart":true},{"_id":"5f8c7236077fd8965d499261","longitude":144.7356233333,"latitude":-37.8825216667,"address":"Aldi G Point Cook","capacity":100,"threshold":8,"currentFullness":2,"isSmart":true},{"_id":"5f8c7236077fd8965d499262","longitude":144.6614092517,"latitude":-37.9007616667,"address":"Cash Converters G Werribee","capacity":100,"threshold":8,"currentFullness":2,"isSmart":true},{"_id":"5f8c7236077fd8965d499263","longitude":144.66128,"latitude":-37.900181,"address":"General Practice R Werribee","capacity":100,"threshold":8,"currentFullness":2,"isSmart":true},{"_id":"5f8c7236077fd8965d499264","longitude":144.6575503108,"latitude":-37.9030024868,"address":"Wedge St Piazza G Werribee","capacity":100,"threshold":8,"currentFullness":0,"isSmart":true},{"_id":"5f8c7236077fd8965d499265","longitude":144.7354966667,"latitude":-37.88338,"address":"Ally Fashion G Point Cook","capacity":100,"threshold":8,"currentFullness":6,"isSmart":true},{"_id":"5f8c7236077fd8965d499266","longitude":144.7351407368,"latitude":-37.883220053,"address":"Nandos G Point Cook","capacity":100,"threshold":8,"currentFullness":6,"isSmart":true},{"_id":"5f8c7236077fd8965d499267","longitude":144.7351416667,"latitude":-37.8841133333,"address":"Woolworths G Point Cook","capacity":100,"threshold":8,"currentFullness":2,"isSmart":true},{"_id":"5f8c7236077fd8965d499268","longitude":144.6619166667,"latitude":-37.9011583333,"address":"Ballan House G Werribee","capacity":100,"threshold":8,"currentFullness":6,"isSmart":true},{"_id":"5f8c7236077fd8965d499269","longitude":144.6611494902,"latitude":-37.9013174858,"address":"79 Watton St G Werribee","capacity":100,"threshold":8,"currentFullness":8,"isSmart":true},{"_id":"5f8c7236077fd8965d49926a","longitude":144.7352828938,"latitude":-37.8827389697,"address":"Coles G Point Cook","capacity":100,"threshold":8,"currentFullness":6,"isSmart":true},{"_id":"5f8c7236077fd8965d49926b","longitude":144.6607366667,"latitude":-37.9016183333,"address":"Watton Plaza G Werribee","capacity":100,"threshold":8,"currentFullness":0,"isSmart":true},{"_id":"5f8c7236077fd8965d49926c","longitude":144.6603083333,"latitude":-37.9020383333,"address":"Commercial Hotel G Werribee","capacity":100,"threshold":8,"currentFullness":0,"isSmart":true},{"_id":"5f8c7236077fd8965d49926d","longitude":144.661445,"latitude":-37.9000316667,"address":"Proven Training G Werribee","capacity":100,"threshold":8,"currentFullness":4,"isSmart":true},{"_id":"5f8c7236077fd8965d49926e","longitude":144.6619166667,"latitude":-37.9006433333,"address":"Hockingstuart G Werribee","capacity":100,"threshold":8,"currentFullness":4,"isSmart":true},{"_id":"5f8c7236077fd8965d49926f","longitude":144.6613755151,"latitude":-37.9011926717,"address":"Park Hotel G Werribee","capacity":100,"threshold":8,"currentFullness":0,"isSmart":true},{"_id":"5f8c7236077fd8965d499270","longitude":144.6607583333,"latitude":-37.901555,"address":"Watton Plaza R Werribee","capacity":100,"threshold":8,"currentFullness":2,"isSmart":true},{"_id":"5f8c7236077fd8965d499271","longitude":144.6602866667,"latitude":-37.9020266667,"address":"Commercial Hotel R Werribee","capacity":100,"threshold":8,"currentFullness":0,"isSmart":true},{"_id":"5f8c7236077fd8965d499272","longitude":144.735345,"latitude":-37.8827266667,"address":"Coles R Point Cook","capacity":100,"threshold":8,"currentFullness":6,"isSmart":true},{"_id":"5f8c7236077fd8965d499273","longitude":144.6602679348,"latitude":-37.9018541015,"address":"Bendigo Bank R Werribee","capacity":100,"threshold":8,"currentFullness":0,"isSmart":true},{"_id":"5f8c7236077fd8965d499274","longitude":144.6575183333,"latitude":-37.903025,"address":"Wedge St Piazza R Werribee","capacity":100,"threshold":8,"currentFullness":0,"isSmart":true},{"_id":"5f8c7236077fd8965d499275","longitude":144.6614327211,"latitude":-37.9007198946,"address":"Cash Converters R Werribee","capacity":100,"threshold":8,"currentFullness":0,"isSmart":true},{"_id":"5f8c7236077fd8965d499276","longitude":144.66128,"latitude":-37.900181,"address":"General Practice R Werribee","capacity":100,"threshold":8,"currentFullness":2,"isSmart":true},{"_id":"5f8c7236077fd8965d499277","longitude":144.6611613075,"latitude":-37.9013126406,"address":"79 Watton St R Werribee","capacity":100,"threshold":8,"currentFullness":4,"isSmart":true},{"_id":"5f8c7236077fd8965d499278","longitude":144.7354533333,"latitude":-37.883445,"address":"Ally Fashion R Point Cook","capacity":100,"threshold":8,"currentFullness":2,"isSmart":true},{"_id":"5f8c7236077fd8965d499279","longitude":144.7351335129,"latitude":-37.884073105,"address":"Woolworths R Point Cook","capacity":100,"threshold":8,"currentFullness":10,"isSmart":true},{"_id":"5f8c7236077fd8965d49927a","longitude":144.661874373,"latitude":-37.9005884942,"address":"Hockingstuart R Werribee","capacity":100,"threshold":8,"currentFullness":0,"isSmart":true},{"_id":"5f8c7236077fd8965d49927b","longitude":144.6619360691,"latitude":-37.901148703,"address":"Ballan House R Werribee","capacity":100,"threshold":8,"currentFullness":0,"isSmart":true},{"_id":"5f8c7236077fd8965d49927c","longitude":144.7356466667,"latitude":-37.882425,"address":"Aldi R Point Cook","capacity":100,"threshold":8,"currentFullness":8,"isSmart":true},{"_id":"5f8c7236077fd8965d49927d","longitude":144.6614718221,"latitude":-37.9000687209,"address":"Proven Training R Werribee","capacity":100,"threshold":8,"currentFullness":4,"isSmart":true},{"_id":"5f8c7236077fd8965d49927e","longitude":144.7352166667,"latitude":-37.88323,"address":"Nandos R Point Cook","capacity":100,"threshold":8,"currentFullness":6,"isSmart":true},{"_id":"5f8c7236077fd8965d49927f","longitude":144.6614036348,"latitude":-37.9011767992,"address":"Park Hotel R Werribee","capacity":100,"threshold":8,"currentFullness":0,"isSmart":true},{"_id":"5f8c7236077fd8965d4992a0","longitude":144.7331147,"latitude":-37.8932189,"address":"Grainger Circuit, Innisfail, Point Cook, City of Wyndham, Victoria, 3030, Australia","capacity":347,"isSmart":false},{"_id":"5f8c7236077fd8965d4992a1","longitude":144.76199238594253,"latitude":-37.92533475,"address":"RAAF Lake, Main Drive, Point Cook, City of Wyndham, Victoria, 3028, Australia","capacity":234,"isSmart":false},{"_id":"5f8c7236077fd8965d4992a2","longitude":144.719789,"latitude":-37.6555917,"address":"Outer Metropolitan Ring Road / E6, Oaklands Junction, City of Hume, Victoria, 3336, Australia","capacity":278,"isSmart":false},{"_id":"5f8c7236077fd8965d4992a3","longitude":144.6398406,"latitude":-37.8478183,"address":"Mornington Avenue, Newgate, Tarneit, City of Wyndham, Victoria, 3024, Australia","capacity":151,"isSmart":false},{"_id":"5f8c7236077fd8965d4992a4","longitude":144.7077463,"latitude":-37.8761503,"address":"Gildan Court, Woodville Gardens, Hoppers Crossing, City of Wyndham, Victoria, 3030, Australia","capacity":196,"isSmart":false},{"_id":"5f8c7236077fd8965d4992a5","longitude":144.6906656,"latitude":-37.8857409,"address":"Bernhardt Avenue, Woodville, Hoppers Crossing, Werribee, City of Wyndham, Victoria, 3030, Australia","capacity":158,"isSmart":false},{"_id":"5f8c7236077fd8965d4992a6","longitude":144.7963634,"latitude":-37.8821372,"address":"Hobsons Bay Coastal Trail, Altona Meadows, City of Hobsons Bay, Victoria, 3018, Australia","capacity":472,"isSmart":false},{"_id":"5f8c7236077fd8965d4992a7","longitude":144.5919382,"latitude":-37.9053532,"address":"Porter Street, Cornerstone, Werribee, City of Wyndham, Victoria, 3024, Australia","capacity":198,"isSmart":false},{"_id":"5f8c7236077fd8965d4992a8","longitude":144.7012669,"latitude":-37.864668,"address":"Hogans Road, Hoppers Crossing, City of Wyndham, Victoria, 3029, Australia","capacity":184,"isSmart":false},{"_id":"5f8c7236077fd8965d4992a9","longitude":144.5845217,"latitude":-37.8392179,"address":"Spring Plains Road, Wyndham Vale, City of Wyndham, Victoria, 3024, Australia","capacity":354,"isSmart":false},{"_id":"5f8c7236077fd8965d4992aa","longitude":144.7650453,"latitude":-37.9101396,"address":"Design Drive, Catalina, Point Cook, City of Wyndham, Victoria, 3028, Australia","capacity":337,"isSmart":false},{"_id":"5f8c7236077fd8965d4992ab","longitude":144.7091116,"latitude":-37.925814,"address":"Aviation Road, Werribee South, City of Wyndham, Victoria, 3030, Australia","capacity":122,"isSmart":false},{"_id":"5f8c7236077fd8965d4992ac","longitude":144.719789,"latitude":-37.6555917,"address":"Outer Metropolitan Ring Road / E6, Oaklands Junction, City of Hume, Victoria, 3336, Australia","capacity":454,"isSmart":false},{"_id":"5f8c7236077fd8965d4992ad","longitude":144.7060389,"latitude":-37.8757367,"address":"Hotham Crescent, Woodville Gardens, Hoppers Crossing, City of Wyndham, Victoria, 3030, Australia","capacity":181,"isSmart":false},{"_id":"5f8c7236077fd8965d4992ae","longitude":144.703414,"latitude":-37.8209958,"address":"Dohertys Road, Villages of Rothwell, Truganina, City of Wyndham, Victoria, 3029, Australia","capacity":465,"isSmart":false},{"_id":"5f8c7236077fd8965d4992af","longitude":144.81019271582454,"latitude":-37.8391534,"address":"NQX Freight Systems, Horsburgh Drive, Altona North, City of Hobsons Bay, Victoria, 3018, Australia","capacity":318,"isSmart":false},{"_id":"5f8c7236077fd8965d4992b0","longitude":144.6736408,"latitude":-37.8999415,"address":"Nantilla Crescent, Werribee, City of Wyndham, Victoria, 3030, Australia","capacity":277,"isSmart":false},{"_id":"5f8c7236077fd8965d4992b1","longitude":144.6373449,"latitude":-37.842572,"address":"Celestial Circuit, Grand Central, Tarneit, City of Wyndham, Victoria, 3024, Australia","capacity":275,"isSmart":false},{"_id":"5f8c7236077fd8965d4992b2","longitude":144.7045887,"latitude":-37.8972515,"address":"Princes Freeway Onramp, Werribee, City of Wyndham, Victoria, 3030, Australia","capacity":328,"isSmart":false},{"_id":"5f8c7236077fd8965d4992b3","longitude":144.6765344,"latitude":-37.8627356,"address":"Connor Place, Cambridge, Hoppers Crossing, City of Wyndham, Victoria, 3029, Australia","capacity":424,"isSmart":false},{"_id":"5f8c7236077fd8965d4992b4","longitude":144.6536102,"latitude":-37.8826914,"address":"Bunyip Court, Riverdene, Werribee, City of Wyndham, Victoria, 3030, Australia","capacity":416,"isSmart":false},{"_id":"5f8c7236077fd8965d4992b5","longitude":144.6769283,"latitude":-37.9211348,"address":"Main Drive, Werribee South, Werribee, City of Wyndham, Victoria, 3030, Australia","capacity":320,"isSmart":false},{"_id":"5f8c7236077fd8965d4992b6","longitude":144.7950889,"latitude":-37.8520775,"address":"Modal Place, Altona, City of Hobsons Bay, Victoria, 3018, Australia","capacity":471,"isSmart":false},{"_id":"5f8c7236077fd8965d4992b7","longitude":144.735035,"latitude":-37.8242766,"address":"four ate five, Dohertys Road, Truganina, City of Wyndham, Victoria, 3027, Australia","capacity":405,"isSmart":false},{"_id":"5f8c7236077fd8965d4992b8","longitude":144.655948,"latitude":-37.926216,"address":"Main Drive, Cocoroc, Werribee, City of Wyndham, Victoria, 3030, Australia","capacity":218,"isSmart":false},{"_id":"5f8c7236077fd8965d4992b9","longitude":144.6780052,"latitude":-36.5986096,"address":"Victoria, Australia","capacity":485,"isSmart":false},{"_id":"5f8c7236077fd8965d4992ba","longitude":144.6571881,"latitude":-37.9212778,"address":"Werribee River Trail, Cocoroc, Werribee, City of Wyndham, Victoria, 3030, Australia","capacity":143,"isSmart":false},{"_id":"5f8c7236077fd8965d4992bb","longitude":144.6784907,"latitude":-37.9041918,"address":"Edwards Road, Werribee, City of Wyndham, Victoria, 3030, Australia","capacity":334,"isSmart":false},{"_id":"5f8c7236077fd8965d4992bc","longitude":144.6634438,"latitude":-37.8508007,"address":"Chlorinda Road, Bethany Park, Tarneit, City of Wyndham, Victoria, 3029, Australia","capacity":116,"isSmart":false},{"_id":"5f8c7236077fd8965d4992bd","longitude":144.6200485,"latitude":-37.840776,"address":"Sayers Road, Tarneit, City of Wyndham, Victoria, 3024, Australia","capacity":119,"isSmart":false},{"_id":"5f8c7236077fd8965d4992be","longitude":144.6334621,"latitude":-37.8910811,"address":"Kent Court, Windsor Park, Werribee, City of Wyndham, Victoria, 3030, Australia","capacity":370,"isSmart":false},{"_id":"5f8c7236077fd8965d4992bf","longitude":144.5930506,"latitude":-37.9061735,"address":"Ryebank Avenue, Cornerstone, Werribee, City of Wyndham, Victoria, 3024, Australia","capacity":267,"isSmart":false},{"_id":"5f8c7236077fd8965d4992c0","longitude":144.8043032,"latitude":-37.8155283,"address":"Raymond Road, Laverton North, City of Wyndham, Victoria, 3026, Australia","capacity":308,"isSmart":false},{"_id":"5f8c7236077fd8965d4992c1","longitude":144.6621966,"latitude":-37.8365961,"address":"Tallinga Street, The Heartlands, Tarneit, City of Wyndham, Victoria, 3029, Australia","capacity":136,"isSmart":false},{"_id":"5f8c7236077fd8965d4992c2","longitude":144.6896866,"latitude":-37.9154122,"address":"Harrisons Road, Werribee South, Werribee, City of Wyndham, Victoria, 3030, Australia","capacity":403,"isSmart":false},{"_id":"5f8c7236077fd8965d4992c3","longitude":144.6615621,"latitude":-37.9146919,"address":"18, Loop Road, Werribee, City of Wyndham, Victoria, 3030, Australia","capacity":230,"isSmart":false},{"_id":"5f8c7236077fd8965d4992c4","longitude":144.7645583,"latitude":-37.8848613,"address":"Peppercorn Court, Sanctuary Lakes, Point Cook, City of Wyndham, Victoria, 3028, Australia","capacity":229,"isSmart":false},{"_id":"5f8c7236077fd8965d4992c5","longitude":144.72765143437016,"latitude":-37.89068635,"address":"Stella Maris Catholic Primary School, 54-70, Innisfail Drive, Innisfail, Point Cook, City of Wyndham, Victoria, 3030, Australia","capacity":184,"isSmart":false},{"_id":"5f8c7236077fd8965d4992c6","longitude":144.6872588,"latitude":-37.8701996,"address":"Bourke Crescent, Mossfiel, Hoppers Crossing, City of Wyndham, Victoria, 3030, Australia","capacity":225,"isSmart":false},{"_id":"5f8c7236077fd8965d4992c7","longitude":144.7850633,"latitude":-37.8560508,"address":"Danglow Avenue, Altona, City of Hobsons Bay, Victoria, 3026, Australia","capacity":344,"isSmart":false},{"_id":"5f8c7236077fd8965d4992c8","longitude":144.7543930363833,"latitude":-37.93110825,"address":"RAAF Base Williams, Williams Road, Point Cook, City of Wyndham, Victoria, Australia","capacity":344,"isSmart":false},{"_id":"5f8c7236077fd8965d4992c9","longitude":144.6739163,"latitude":-37.8913249,"address":"Shaws Road, Werribee, City of Wyndham, Victoria, 3030, Australia","capacity":400,"isSmart":false},{"_id":"5f8c7236077fd8965d4992ca","longitude":144.7018364,"latitude":-37.9019127,"address":"Princes Freeway, Werribee, Werribee South, City of Wyndham, Victoria, 3030, Australia","capacity":276,"isSmart":false},{"_id":"5f8c7236077fd8965d4992cb","longitude":144.5903845,"latitude":-37.8618526,"address":"Honeycomb Avenue, Manor Lakes, City of Wyndham, Victoria, 3024, Australia","capacity":173,"isSmart":false},{"_id":"5f8c7236077fd8965d4992cc","longitude":144.5845217,"latitude":-37.8392179,"address":"Spring Plains Road, Wyndham Vale, City of Wyndham, Victoria, 3024, Australia","capacity":303,"isSmart":false},{"_id":"5f8c7236077fd8965d4992cd","longitude":144.5884681,"latitude":-37.870333,"address":"Bregman Esplanade, Manor Lakes, City of Wyndham, Victoria, 3024, Australia","capacity":328,"isSmart":false},{"_id":"5f8c7236077fd8965d4992ce","longitude":144.76367330107155,"latitude":-37.89960765,"address":"Sanctuary Lakes, Middle Park Drive, Sanctuary Lakes, Point Cook, City of Wyndham, Victoria, 3028, Australia","capacity":490,"isSmart":false},{"_id":"5f8c7236077fd8965d4992cf","longitude":144.7270034,"latitude":-37.9252958,"address":"Lignum Road, Point Cook, City of Wyndham, Victoria, 3030, Australia","capacity":274,"isSmart":false},{"_id":"5f8c7236077fd8965d4992d0","longitude":144.6084185,"latitude":-37.8722432,"address":"Wyndham Vale, City of Wyndham, Victoria, 3024, Australia","capacity":384,"isSmart":false},{"_id":"5f8c7236077fd8965d4992d1","longitude":144.7401004,"latitude":-37.9133493,"address":"Urchin Way, Alamanda, Point Cook, City of Wyndham, Victoria, 3030, Australia","capacity":316,"isSmart":false}]}