{"depots":[{"_id":"5f8ea2c1484ac5d026c53901","longitude":145.133957,"latitude":-37.907803,"address":"Monash University"}],"binCollectionSchedules":[{"routes":[{"vehicle":"5f8ea2c2484ac5d026c53902","directions":[{"geocoded_waypoints":[{"geocoder_status":"OK","place_id":"ChIJgXDTibVq1moRr1lPTnO_f9Q","types":["establishment","point_of_interest","transit_station"]},{"geocoder_status":"OK","place_id":"ChIJizIz38ph1moRrpwFHLSMG4M","types":["street_address"]},{"geocoder_status":"OK","place_id":"ChIJWwWr8NOL1moRDvfQu6bWZlA","types":["street_address"]},{"geocoder_status":"OK","place_id":"ChIJuVpUe_OI1moRLp0XowWZUag","types":["street_address"]},{"geocoder_status":"OK","place_id":"ChIJUZcBZPOI1moRGtBQ3cDHsL4","types":["atm","establishment","finance","point_of_interest"]},{"geocoder_status":"OK","place_id":"ChIJsceWWvOI1moRR162cXGjz_E","types":["street_address"]},{"geocoder_status":"OK","place_id":"ChIJZbG2soyI1moRlnTtAVEyHk8","types":["street_address"]},{"geocoder_status":"OK","place_id":"ChIJgf77nIWI1moRjrFtK2gJ3bg","types":["street_address"]},{"geocoder_status":"OK","place_id":"ChIJk_GxlleE1moR2B1AnGu5CI8","types":["route"]},{"geocoder_status":"OK","place_id":"ChIJdfSUHF-E1moREhKnCKVVO2I","types":["route"]},{"geocoder_status":"OK","place_id":"EiwxMiBBcnRmaWVsZCBEciwgV2VycmliZWUgVklDIDMwMzAsIEF1c3RyYWxpYSIaEhgKFAoSCZEThlI6m9ZqEeh59fxUDX7wEAw","types":["street_address"]},{"geocoder_status":"OK","place_id":"ChIJuXd8ujub1moRVv2WuijHRVU","types":["route"]},{"geocoder_status":"OK","place_id":"ChIJpV1LObOa1moRbozYyjG0JEE","types":["establishment","point_of_interest","train_station","transit_station"]},{"geocoder_status":"OK","place_id":"ChIJdy3E7r-a1moRul2_6kGhRpQ","types":["street_address"]},{"geocoder_status":"OK","place_id":"ChIJQZ4PKKOa1moR3l2CLCXtotg","types":["street_address"]},{"geocoder_status":"OK","place_id":"ChIJff2NmXGQ1moRFNBrQo-JC5c","types":["route"]},{"geocoder_status":"OK","place_id":"ChIJff2NmXGQ1moRFNBrQo-JC5c","types":["route"]},{"geocoder_status":"OK","place_id":"ChIJNXC6dhaF1moR9PmFCMr493o","types":["street_address"]},{"geocoder_status":"OK","place_id":"ChIJT2bNm4KF1moRmtoFKTvKN9k","types":["premise"]},{"geocoder_status":"OK","place_id":"ChIJMyaln5KF1moRGQ_SUN8S_wI","types":["premise"]},{"geocoder_status":"OK","place_id":"ChIJgZfmZlaP1moRLdS_G_ysvWY","types":["street_address"]},{"geocoder_status":"OK","place_id":"ChIJBdQKt7eI1moR4x2sgnvAXyM","types":["street_address"]},{"geocoder_status":"OK","place_id":"ChIJXRPDi7eI1moRSlfrf8bgQMY","types":["premise"]},{"geocoder_status":"OK","place_id":"ChIJZ3YAuM2I1moRLaDdBA8y2LI","types":["premise"]},{"geocoder_status":"OK","place_id":"ChIJixsNYkiP1moRfA8gIoBXS9Y","types":["street_address"]}],"routes":[{"bounds":{"northeast":{"lat":-37.8119211,"lng":145.1339639},"southwest":{"lat":-37.9293595,"lng":144.5756892}},"copyrights":"Map data Â©2020","legs":[{"distance":{"text":"36.2 km","value":36154},"duration":{"text":"31 mins","value":1851},"end_address":"33 Boundary Rd, Laverton North VIC 3026, Australia","end_location":{"lat":-37.8155208,"lng":144.8043168},"start_address":"Monash University, Clayton VIC 3800, Australia","start_location":{"lat":-37.9077593,"lng":145.1339639},"steps":[{"distance":{"text":"0.3 km","value":336},"duration":{"text":"1 min","value":51},"end_location":{"lat":-37.9075011,"lng":145.1301917},"html_instructions":"Head <b>west</b> on <b>Research Way</b> towards <b>Boilerhouse Rd</b>","polyline":{"points":"nzjfFgnytZEr@EfAYvEGfAWzEA\\AN?H@FBF@DDL@B@DBR"},"start_location":{"lat":-37.9077593,"lng":145.1339639},"travel_mode":"DRIVING"},{"distance":{"text":"0.2 km","value":230},"duration":{"text":"1 min","value":28},"end_location":{"lat":-37.9070957,"lng":145.1278421},"html_instructions":"At the roundabout, take the <b>3rd</b> exit onto <b>Bayview Ave</b>/<wbr/><b>Boundary Rd</b><div style=\"font-size:0.9em\">Continue to follow Bayview Ave</div>","maneuver":"roundabout-left","polyline":{"points":"zxjfFuvxtZ@?FJBHBHBJ@F@J?B?FADADCFCHGHEFEBGBA?A?MTEFCFGNALAPGjAQnD"},"start_location":{"lat":-37.9075011,"lng":145.1301917},"travel_mode":"DRIVING"},{"distance":{"text":"0.8 km","value":825},"duration":{"text":"1 min","value":88},"end_location":{"lat":-37.8997609,"lng":145.1292176},"html_instructions":"Turn <b>right</b> onto <b>Gardiner Rd</b>","maneuver":"turn-right","polyline":{"points":"jvjfF_hxtZiBU{BWy@IoBUgAMgAKc@EiBScCYeCYmCYe@ESCmBSSCc@Go@Ik@Ey@I"},"start_location":{"lat":-37.9070957,"lng":145.1278421},"travel_mode":"DRIVING"},{"distance":{"text":"0.6 km","value":641},"duration":{"text":"1 min","value":66},"end_location":{"lat":-37.8940411,"lng":145.1301195},"html_instructions":"Continue onto <b>Forster Rd</b>","polyline":{"points":"nhifFspxtZUCy@EG?_@CIAK?QCyAIGAc@Cm@GaCWg@GsC[s@GSCA@MCYAu@A]CI?a@GaAIcAKmBW"},"start_location":{"lat":-37.8997609,"lng":145.1292176},"travel_mode":"DRIVING"},{"distance":{"text":"20.0 km","value":19977},"duration":{"text":"15 mins","value":911},"end_location":{"lat":-37.8267586,"lng":144.9493907},"html_instructions":"Merge onto <b>M1</b> via the ramp to <b>City</b><div style=\"font-size:0.9em\">Toll road</div>","maneuver":"ramp-left","polyline":{"points":"vdhfFgvxtZC@E@E@E?E?G@I@KDKHGDGFA?GJIPCDCHENGPCLELCLCLAB?BEHC@_@rBo@lDCNKj@Kz@MhAE\\Gv@AD?DCBKTItAWhEShDUtEUlDCPMxAM`AUdB[dBSfAEPSdAOn@?@g@nB{@tCa@hAO^Yt@}@vBmAhCEHKNgAvByAvCEHe@bA_A`C{@`CYz@[lAc@|AU|@[xAYvA_@hC_@lCQfBWvC]tEWhDOlBKxAc@tFo@`IeAnLM|AMvA]tDSxB[jDYnC]xBO`A_@lBa@fBOt@}@bDgAjD_AhCYj@GNKROb@INKVeBfDeAfBsEjIkBtDs@tAyBfEwA~CsA~CiBrEUl@O`@KV{@dC[bAQr@UfAQfAALIp@Gl@Gv@A`@CrAAx@@z@DnBF`BXtH\\bJDrABfA?p@Ap@Cv@?HOhBE`@]bCOn@W`A]bA[|@a@~@]t@a@n@s@hAk@v@e@f@s@t@c@^{@p@_@Vk@\\o@\\g@Vy@XiGrB_Cv@yAd@eA^cAd@aCrAmBtAkB`Bs@n@eDxCiA|@aAn@]Ra@Ru@\\k@R_AZuAZUDaHrAiI~AuDr@yDv@UDOBsB`@wBb@e@Ho@LwB`@iANyBh@g@LeAZMDcA`@{@b@c@XgBjAkA~@WXk@n@q@bAi@t@e@x@OPs@zAa@~@k@bB[fAWfAw@vCK`@Mn@GT]lAIZc@nAu@~A}AnCaCbEu@zAq@tAm@|A]|@i@xB[hBOfAADSxAOjAc@lDMbAKn@_@bBKn@e@tAc@dAQTu@pAYh@[b@[`@c@f@e@d@_@ZiA|@s@d@u@\\g@Rm@TkAVA?a@Hc@F_@DeAFg@@iAAuFK{AC_CRi@Dm@Ju@Rg@Rm@VKFULe@ZC@[Vm@d@a@\\e@d@_@f@k@v@OVWd@_@x@m@bBOh@ABQr@Mn@Ib@Mp@In@EXCZCb@?FEz@C~@?v@@~@FzAB\\@VD\\|@~GJ|@Dp@D`A@xAA`@Cr@CXC^ALIp@I`@Kl@[bAc@jA{@`ByAbBw@t@WX{AnA]X{BlByAhAcAx@IHMJQLo@p@a@\\iB|AgA~@gAlA_AxAe@bAQd@IXOh@Mj@Ol@QpAQrAw@fHUpBmBzOOnAE^KdAAVCf@CtA?Z@f@Bt@H|@@LHh@Jj@BTTbAfBhGF^VrBDTF`A?@B^?T?~@?v@CZCp@IdAQdCMtAG|@Er@ApA?v@Dv@@VBRFb@PbAPv@JZLd@@Bn@tAzBxDv@pAP^Zn@Xr@Vl@Rl@j@fBLh@BJBJh@|Bl@zCLp@Hl@JdAB`@@l@AhA?FAn@O`BYjBQr@c@tBYtAWrASzA?DETWnBa@fBc@nAe@fAi@z@OTIJq@x@o@v@kCjCqDrDcA|@aAz@cAv@cAr@cBlAg@\\}@z@]^QTc@n@Y`@MRUf@Wt@Ut@GXQz@WjBi@tEE^KhBWrDGl@El@QjBGf@a@`EAHKx@Iz@ALEb@AHCj@APATCPEdA?DMfBCl@Ez@I~@?BGfAAZ?JAr@KbCMxB?BEr@GbAItBCjC?F@P?R@|@JpADLJj@FR?@DRFPBLb@jBb@hB@BPx@R|@hAlFZrA\\fBTnA@PFZBTHv@BLBVBRb@|CrAvGLn@^lBPv@DPH`@`@jBR`ADRBRR`ANbANfA?BDTBRD`@LvABrABf@@n@@R?`AA~@Cd@?PCXIrAE`@ANIz@Mz@Kv@ObAG`@G^CV_@pCUlBABE^E^Mz@Kd@SrAUtAIn@G`@E^OfA?@}@|G"},"start_location":{"lat":-37.8940411,"lng":145.1301195},"travel_mode":"DRIVING"},{"distance":{"text":"6.0 km","value":5998},"duration":{"text":"5 mins","value":283},"end_location":{"lat":-37.8253576,"lng":144.8866166},"html_instructions":"Keep <b>right</b> to stay on <b>M1</b>","maneuver":"keep-right","polyline":{"points":"f`{eFulusZUtASjB]pCQfBe@hFIpAEv@MnBMlCa@xHQfECxACbBCnC@pCB~@HvDL`DRpFf@tIX`EPzB`AvIvCzWDT\\zCV~Bj@lEPrATjAR`AXbAh@pBd@vA\\`A|@tBP`@f@bA\\n@~@pBBD~@zBtAfD`CzFf@nApAzCjBhEVn@l@dB`@rA\\jAZpAT|@PdAZzBD^Ht@Fj@Fd@JvAFfADrA@b@?\\@fAA`ACv@?BCn@Ct@C`@ABCf@Ef@Gl@Gh@Kv@Ip@Oz@Ox@On@Mj@Mh@K^AFOd@GRK^Ob@Od@Uj@Sf@Wl@Sd@OZCDSd@CB[r@w@|Ag@dAUd@q@rA_BfDININcArBg@~@cAtBe@`Ac@z@Yl@_@r@Yj@MTMT{AzCqAjCEHEF]n@Sb@KRMZWh@a@`Au@tBUp@KVENQn@a@vA]rASz@Sz@UrA_@xBWzAIp@Kt@MdBMhBGtAAZCn@Cn@Al@Af@"},"start_location":{"lat":-37.8267586,"lng":144.9493907},"travel_mode":"DRIVING"},{"distance":{"text":"5.4 km","value":5375},"duration":{"text":"4 mins","value":259},"end_location":{"lat":-37.8257477,"lng":144.8256018},"html_instructions":"Keep <b>right</b> to stay on <b>M1</b>","maneuver":"keep-right","polyline":{"points":"nwzeFkdisZCx@AhA@jB@h@F|BFfBD|@DhA@\\FbD@~@AvBA|AC|A?BChBOlCEn@En@SnBGl@CNUrC]~EEj@]fFYrFIlBOnEGfBEzBCxAAdAATCbC?`E?fA?l@?lB?L@f@?vAHdK@n@FrH?BZ`[NtM@tA@b@DfDB`DB|B@f@XvRBnB@pB@`AB|ELfFXbJFv@b@jKP|FNzFB`B@~@HtGFhV?DBxK@bD@`E?p@?DAdJ?`@?z@?N@bA?`@BhC"},"start_location":{"lat":-37.8253576,"lng":144.8866166},"travel_mode":"DRIVING"},{"distance":{"text":"1.3 km","value":1305},"duration":{"text":"1 min","value":63},"end_location":{"lat":-37.8247491,"lng":144.8121991},"html_instructions":"Take exit <b>W10</b> towards <b>National Hwy M31</b>/<wbr/><b>Hume Fwy</b>/<wbr/><b>Melbourne Airport</b>","maneuver":"ramp-left","polyline":{"points":"|yzeF_g}rZPvAFhAN`GDpABz@F|@Hz@Hv@Jp@Ll@BLFVNp@d@~Ad@|Aj@pBV`ANl@Hj@Ht@DhA@r@?l@?REdA?DEf@C\\CLEb@AFMx@Ml@Sv@Un@Yr@c@x@c@p@eDnFcA~AEHWb@Yb@c@z@"},"start_location":{"lat":-37.8257477,"lng":144.8256018},"travel_mode":"DRIVING"},{"distance":{"text":"0.6 km","value":586},"duration":{"text":"1 min","value":25},"end_location":{"lat":-37.8199567,"lng":144.8095734},"html_instructions":"Continue onto <b>Western Ring Rd</b>/<wbr/><b>M80</b>","polyline":{"points":"tszeFgszrZoApAkAbAw@h@wAr@s@XyBt@YHUHUF}KlD"},"start_location":{"lat":-37.8247491,"lng":144.8121991},"travel_mode":"DRIVING"},{"distance":{"text":"0.5 km","value":508},"duration":{"text":"1 min","value":38},"end_location":{"lat":-37.8156897,"lng":144.8075621},"html_instructions":"Take the <b>Boundary Rd</b> exit towards <b>State Rte 32</b>","maneuver":"ramp-left","polyline":{"points":"vuyeFybzrZa@\\MJwCnAcA\\m@Ro@R}@T{A^c@NqBn@c@PqBv@SHQF"},"start_location":{"lat":-37.8199567,"lng":144.8095734},"travel_mode":"DRIVING"},{"distance":{"text":"0.3 km","value":310},"duration":{"text":"1 min","value":32},"end_location":{"lat":-37.8150465,"lng":144.8043017},"html_instructions":"Turn <b>left</b> onto <b>Boundary Rd</b>/<wbr/><b>State Route 32</b>","maneuver":"turn-left","polyline":{"points":"`{xeFgvyrZQPC@QJGDGFCBA@A@A@CBARAv@QnCM`ECVEl@EVAHCR?TAN@N"},"start_location":{"lat":-37.8156897,"lng":144.8075621},"travel_mode":"DRIVING"},{"distance":{"text":"27 m","value":27},"duration":{"text":"1 min","value":3},"end_location":{"lat":-37.815245,"lng":144.8041277},"html_instructions":"Turn <b>left</b> towards <b>Raymond Rd</b>","maneuver":"turn-left","polyline":{"points":"`wxeF{ayrZHNB@@BB@DBJD"},"start_location":{"lat":-37.8150465,"lng":144.8043017},"travel_mode":"DRIVING"},{"distance":{"text":"36 m","value":36},"duration":{"text":"1 min","value":4},"end_location":{"lat":-37.8155208,"lng":144.8043168},"html_instructions":"Slight <b>left</b> onto <b>Raymond Rd</b>","maneuver":"turn-slight-left","polyline":{"points":"fxxeFy`yrZHAD@BE@CDCPMHI"},"start_location":{"lat":-37.815245,"lng":144.8041277},"travel_mode":"DRIVING"}],"traffic_speed_entry":[],"via_waypoint":[]},{"distance":{"text":"7.6 km","value":7630},"duration":{"text":"11 mins","value":653},"end_address":"678 Dohertys Rd, Truganina VIC 3029, Australia","end_location":{"lat":-37.8238044,"lng":144.735087},"start_address":"33 Boundary Rd, Laverton North VIC 3026, Australia","start_location":{"lat":-37.8155208,"lng":144.8043168},"steps":[{"distance":{"text":"55 m","value":55},"duration":{"text":"1 min","value":13},"end_location":{"lat":-37.8151569,"lng":144.8039103},"html_instructions":"Head <b>north-west</b> on <b>Raymond Rd</b>","polyline":{"points":"~yxeF_byrZIHQLEBABCDEHGJKLEF"},"start_location":{"lat":-37.8155208,"lng":144.8043168},"travel_mode":"DRIVING"},{"distance":{"text":"1.4 km","value":1441},"duration":{"text":"2 mins","value":129},"end_location":{"lat":-37.8137163,"lng":144.787662},"html_instructions":"At the roundabout, take the <b>1st</b> exit onto <b>Boundary Rd</b>/<wbr/><b>State Route 32</b>","maneuver":"roundabout-left","polyline":{"points":"vwxeFm_yrZ?B?@?B?B?B?BA@?BABA@?BA@ABA@C@A@C@CTCVCj@CVMrDGxAIjBA\\KbCAZAV_@|JWvGY|GWlGU`GKdCE`AU`GIpBYlHAJA\\AJ@L@`@Df@"},"start_location":{"lat":-37.8151569,"lng":144.8039103},"travel_mode":"DRIVING"},{"distance":{"text":"1.6 km","value":1634},"duration":{"text":"2 mins","value":124},"end_location":{"lat":-37.8121804,"lng":144.7693101},"html_instructions":"At the roundabout, take the <b>2nd</b> exit onto <b>Boundary Rd</b>/<wbr/><b>State Route 40</b>","maneuver":"roundabout-left","polyline":{"points":"vnxeF{yurZ@BFF@DBF@D?F@F?FAF?DAFCDCHA@ABA@C@ABA@C@A@G^CPCLC`@C`@SrF?NU|FCv@A`@ExBEjAANANCd@Ev@QdEIrBGdASbGWnGS|F_@vIIpBE`Au@pSC\\A^@ZFt@"},"start_location":{"lat":-37.8137163,"lng":144.787662},"travel_mode":"DRIVING"},{"distance":{"text":"0.3 km","value":290},"duration":{"text":"1 min","value":28},"end_location":{"lat":-37.8119671,"lng":144.766117},"html_instructions":"At the roundabout, take the <b>1st</b> exit onto <b>Boundary Rd</b>","maneuver":"roundabout-left","polyline":{"points":"bexeFegrrZBB@B@B@B@B?B@B?D?B?B?BADAB?BABABCBABA@C@?@Gj@Ih@AFATC\\GbBK`DA^?Z@j@Hj@"},"start_location":{"lat":-37.8121804,"lng":144.7693101},"travel_mode":"DRIVING"},{"distance":{"text":"0.5 km","value":505},"duration":{"text":"1 min","value":39},"end_location":{"lat":-37.8164464,"lng":144.7654124},"html_instructions":"At the roundabout, take the <b>1st</b> exit onto <b>Foundation Rd</b>","maneuver":"roundabout-left","polyline":{"points":"xcxeFgsqrZBB@B@@@B@@?@r@R|AJtAJhBLlKt@hAJhA?"},"start_location":{"lat":-37.8119671,"lng":144.766117},"travel_mode":"DRIVING"},{"distance":{"text":"0.7 km","value":722},"duration":{"text":"1 min","value":52},"end_location":{"lat":-37.822791,"lng":144.7645799},"html_instructions":"At the roundabout, take the <b>2nd</b> exit and stay on <b>Foundation Rd</b>","maneuver":"roundabout-left","polyline":{"points":"x_yeFynqrZ@E@CBC@CBABCB?BAB?B?B?B@@?@@B@BB@BBB@B@B@D@B?@VFzE^~CPr@DH@t@FjEXJ@~In@v@FN?PATA"},"start_location":{"lat":-37.8164464,"lng":144.7654124},"travel_mode":"DRIVING"},{"distance":{"text":"0.4 km","value":374},"duration":{"text":"1 min","value":32},"end_location":{"lat":-37.8260554,"lng":144.764121},"html_instructions":"At the roundabout, take the <b>1st</b> exit and stay on <b>Foundation Rd</b>","maneuver":"roundabout-left","polyline":{"points":"lgzeFsiqrZBEBC@ABC@AB?BA@AB?B?B?B@@?B@B@@@B@@B@@BB@B@B?@FBJFPBTBxAJxAH~Fb@h@BV@T?"},"start_location":{"lat":-37.822791,"lng":144.7645799},"travel_mode":"DRIVING"},{"distance":{"text":"2.6 km","value":2609},"duration":{"text":"4 mins","value":236},"end_location":{"lat":-37.8238044,"lng":144.735087},"html_instructions":"At the roundabout, take the <b>3rd</b> exit onto <b>Dohertys Rd</b><div style=\"font-size:0.9em\">Destination will be on the left</div>","maneuver":"roundabout-left","polyline":{"points":"z{zeFwfqrZ?A@A@C@A@A@?BA@A@?BAB?@?B?@?@?B@@?@@@??@@?@@@B@@@@@@?@@@?@@B?@@B?B?@?B?B?DA@?B?@A??BA@ABA@A@A@A@Gn@IbAGvBEnACr@Ch@UvHS`CEbAKhDALAh@Cp@s@lSSdFGlAAf@KdDq@pK?P?DEf@?@A`AAJAFALAZCh@?`@Ej@GjA?b@ElA@pBK`CA^YnEIbCA`AKnBw@pTUrDAv@KrDIzAC\\CXCn@Ev@CfAEdAGhAGhB"},"start_location":{"lat":-37.8260554,"lng":144.764121},"travel_mode":"DRIVING"}],"traffic_speed_entry":[],"via_waypoint":[]},{"distance":{"text":"8.6 km","value":8609},"duration":{"text":"15 mins","value":871},"end_address":"5 Murnong St, Point Cook VIC 3030, Australia","end_location":{"lat":-37.8825127,"lng":144.7355405},"start_address":"678 Dohertys Rd, Truganina VIC 3029, Australia","start_location":{"lat":-37.8238044,"lng":144.735087},"steps":[{"distance":{"text":"1.2 km","value":1197},"duration":{"text":"2 mins","value":120},"end_location":{"lat":-37.8248032,"lng":144.7486358},"html_instructions":"Head <b>east</b> on <b>Dohertys Rd</b> towards <b>Dunmore Dr</b>","polyline":{"points":"vmzeFiqkrZFiBFiADeABgADw@Bo@BYB]H{AJsD@w@TsDv@qTJoB@aAHcCCIAYA[?}@BsB@sBNuENsC"},"start_location":{"lat":-37.8238044,"lng":144.735087},"travel_mode":"DRIVING"},{"distance":{"text":"0.3 km","value":270},"duration":{"text":"1 min","value":44},"end_location":{"lat":-37.8272169,"lng":144.7483269},"html_instructions":"Turn <b>right</b>","maneuver":"turn-right","polyline":{"points":"~szeF_fnrZZ@pCPB?@?xBJtD\\"},"start_location":{"lat":-37.8248032,"lng":144.7486358},"travel_mode":"DRIVING"},{"distance":{"text":"3.9 km","value":3939},"duration":{"text":"5 mins","value":323},"end_location":{"lat":-37.8621881,"lng":144.7481746},"html_instructions":"Merge onto <b>Palmers Rd</b>","maneuver":"merge","polyline":{"points":"bc{eFadnrZ~D\\`CZ|HZdCLlAHv@FlBLz@DD?lAHxALhAL`ADT?TCp@Db@B`AJ`@Jd@HZBn@DvALlAD~BLJAJA^?d@AlCL|BTL@^BjAJt@D^DtA\\l@@|ANTDnBLr@D`AHp@FvALzBP^@x@DD@hAFzKn@vJp@xBDlACtBOb@C|B[n@OdHgBn@[ROFGPGNEv@Ox@[XOTM`@MPARCr@WXOXGh@Kb@OTEb@EtASh@GpAUf@ORGLGPCFAVCbACl@Gh@CXC~BCj@EXB\\ANAP?T@b@@r@AjCAtABj@C\\@l@?VA^@"},"start_location":{"lat":-37.8272169,"lng":144.7483269},"travel_mode":"DRIVING"},{"distance":{"text":"1.4 km","value":1351},"duration":{"text":"2 mins","value":134},"end_location":{"lat":-37.8674219,"lng":144.7347224},"html_instructions":"Turn <b>right</b> onto <b>Ashcroft Ave</b><div style=\"font-size:0.9em\">Go through 1 roundabout</div>","maneuver":"turn-right","polyline":{"points":"t}afFacnrZN??NDjAAjAAlA?F?F?H?F?HJz@BV@B@RFNRr@\\lAt@fCNd@XbARp@Tp@bAhDx@rCHXL`@b@xABF^pAlA~DBHFTh@zAN\\TTJN@?@?@?@?@@@?@??@@?@@@@@@@@?@@@?@@@?B@@?@?@?@?@?@?@?B?@?@?@A@?@?@BX?B@R?X@F@BFRDLFTbAhCNHHDLLJRN^Xv@bAlCVn@f@xAt@jB"},"start_location":{"lat":-37.8621881,"lng":144.7481746},"travel_mode":"DRIVING"},{"distance":{"text":"0.9 km","value":895},"duration":{"text":"2 mins","value":110},"end_location":{"lat":-37.8751525,"lng":144.7374606},"html_instructions":"Turn <b>left</b> onto <b>Forsyth Rd</b>/<wbr/><b>C701</b>","maneuver":"turn-left","polyline":{"points":"j~bfF_okrZVGj@QZITIj@O\\KBAj@QfBc@PGl@Mf@M`@Kb@IVIHC`@K`@Mb@Kn@S^QXOf@Q^Mb@Qv@Yl@Q@?f@MDAVGBAPENEb@M@ABAVIj@Ol@ObAWPCz@Ol@GL?H?p@Ch@E"},"start_location":{"lat":-37.8674219,"lng":144.7347224},"travel_mode":"DRIVING"},{"distance":{"text":"0.7 km","value":721},"duration":{"text":"1 min","value":74},"end_location":{"lat":-37.8809289,"lng":144.734325},"html_instructions":"Continue onto <b>Boardwalk Blvd</b><div style=\"font-size:0.9em\">Go through 1 roundabout</div>","polyline":{"points":"tndfFc`lrZb@A^@`AHNBN@p@Hz@JP@LB@?VBJ@TBL@H@RBB@VDTDTFLDPFPFVHb@Th@TRNRLVRPPHFFHJLFHHHFDJFVH@?@?@?@?@?@?@?@?@?@??@@?@@@??@@@@@?@@@@B?@@@@DNPz@`APL|@x@f@b@ZX~@x@RR"},"start_location":{"lat":-37.8751525,"lng":144.7374606},"travel_mode":"DRIVING"},{"distance":{"text":"0.2 km","value":236},"duration":{"text":"1 min","value":66},"end_location":{"lat":-37.8825127,"lng":144.7355405},"html_instructions":"Turn <b>left</b> onto <b>Main St</b><div style=\"font-size:0.9em\">Destination will be on the left</div>","maneuver":"turn-left","polyline":{"points":"xrefFolkrZJY\\w@FK@C^_ARg@DKFKFKDGFEDC?AFCDADAH?D?F?~AND?F@NB"},"start_location":{"lat":-37.8809289,"lng":144.734325},"travel_mode":"DRIVING"}],"traffic_speed_entry":[],"via_waypoint":[]},{"distance":{"text":"0.1 km","value":133},"duration":{"text":"2 mins","value":93},"end_address":"1 Main St, Point Cook VIC 3030, Australia","end_location":{"lat":-37.8827131,"lng":144.7354337},"start_address":"5 Murnong St, Point Cook VIC 3030, Australia","start_location":{"lat":-37.8825127,"lng":144.7355405},"steps":[{"distance":{"text":"75 m","value":75},"duration":{"text":"1 min","value":32},"end_location":{"lat":-37.8831785,"lng":144.7354186},"html_instructions":"Head <b>south</b> on <b>Main St</b> towards <b>Murnong St</b>","polyline":{"points":"t|efFctkrZRBTBP@PBF@TBXB"},"start_location":{"lat":-37.8825127,"lng":144.7355405},"travel_mode":"DRIVING"},{"distance":{"text":"58 m","value":58},"duration":{"text":"1 min","value":61},"end_location":{"lat":-37.8827131,"lng":144.7354337},"html_instructions":"Make a <b>U-turn</b> at <b>Murnong St</b><div style=\"font-size:0.9em\">Destination will be on the left</div>","maneuver":"uturn-right","polyline":{"points":"z`ffFkskrZANGAIAiAM"},"start_location":{"lat":-37.8831785,"lng":144.7354186},"travel_mode":"DRIVING"}],"traffic_speed_entry":[],"via_waypoint":[]},{"distance":{"text":"75 m","value":75},"duration":{"text":"1 min","value":40},"end_address":"449 Murnong St, Point Cook VIC 3030, Australia","end_location":{"lat":-37.8831587,"lng":144.7352295},"start_address":"1 Main St, Point Cook VIC 3030, Australia","start_location":{"lat":-37.8827131,"lng":144.7354337},"steps":[{"distance":{"text":"58 m","value":58},"duration":{"text":"1 min","value":21},"end_location":{"lat":-37.8831785,"lng":144.7354186},"html_instructions":"Head <b>south</b> on <b>Main St</b> towards <b>Main St</b>","polyline":{"points":"|}efFmskrZ@MP@PBF@TBXB"},"start_location":{"lat":-37.8827131,"lng":144.7354337},"travel_mode":"DRIVING"},{"distance":{"text":"17 m","value":17},"duration":{"text":"1 min","value":19},"end_location":{"lat":-37.8831587,"lng":144.7352295},"html_instructions":"Turn <b>right</b> at the 1st cross street onto <b>Murnong St</b><div style=\"font-size:0.9em\">Destination will be on the left</div>","maneuver":"turn-right","polyline":{"points":"z`ffFkskrZANAT"},"start_location":{"lat":-37.8831785,"lng":144.7354186},"travel_mode":"DRIVING"}],"traffic_speed_entry":[],"via_waypoint":[]},{"distance":{"text":"0.6 km","value":613},"duration":{"text":"3 mins","value":172},"end_address":"435 Main St, Point Cook VIC 3030, Australia","end_location":{"lat":-37.8840405,"lng":144.7351904},"start_address":"449 Murnong St, Point Cook VIC 3030, Australia","start_location":{"lat":-37.8831587,"lng":144.7352295},"steps":[{"distance":{"text":"0.2 km","value":178},"duration":{"text":"1 min","value":72},"end_location":{"lat":-37.8829424,"lng":144.7332157},"html_instructions":"Head <b>west</b> on <b>Murnong St</b> towards <b>Boardwalk Blvd</b>","polyline":{"points":"v`ffFerkrZ[rFCt@KfB"},"start_location":{"lat":-37.8831587,"lng":144.7352295},"travel_mode":"DRIVING"},{"distance":{"text":"0.2 km","value":153},"duration":{"text":"1 min","value":40},"end_location":{"lat":-37.884299,"lng":144.732952},"html_instructions":"Turn <b>left</b> onto <b>Boardwalk Blvd</b>","maneuver":"turn-left","polyline":{"points":"j_ffFsekrZNBZBZBL?nAPt@Lr@H"},"start_location":{"lat":-37.8829424,"lng":144.7332157},"travel_mode":"DRIVING"},{"distance":{"text":"0.2 km","value":201},"duration":{"text":"1 min","value":28},"end_location":{"lat":-37.8847598,"lng":144.7350586},"html_instructions":"Turn <b>left</b> onto <b>Dunnings Rd</b>","maneuver":"turn-left","polyline":{"points":"zgffF}ckrZLKBCDCBABCFGFEDm@B_@FkAB_@@WBWFsAF_A"},"start_location":{"lat":-37.884299,"lng":144.732952},"travel_mode":"DRIVING"},{"distance":{"text":"81 m","value":81},"duration":{"text":"1 min","value":32},"end_location":{"lat":-37.8840405,"lng":144.7351904},"html_instructions":"Turn <b>left</b> onto <b>Main St</b><div style=\"font-size:0.9em\">Destination will be on the left</div>","maneuver":"turn-left","polyline":{"points":"vjffFcqkrZq@ImAMOA"},"start_location":{"lat":-37.8847598,"lng":144.7350586},"travel_mode":"DRIVING"}],"traffic_speed_entry":[],"via_waypoint":[]},{"distance":{"text":"1.5 km","value":1542},"duration":{"text":"3 mins","value":207},"end_address":"10 Sidney Nolan Walk, Point Cook VIC 3030, Australia","end_location":{"lat":-37.893218,"lng":144.7331149},"start_address":"435 Main St, Point Cook VIC 3030, Australia","start_location":{"lat":-37.8840405,"lng":144.7351904},"steps":[{"distance":{"text":"87 m","value":87},"duration":{"text":"1 min","value":32},"end_location":{"lat":-37.8847664,"lng":144.7351338},"html_instructions":"Head <b>south</b> on <b>Main St</b> towards <b>Main St</b>","polyline":{"points":"ffffF}qkrZ@Mt@HZB|@J"},"start_location":{"lat":-37.8840405,"lng":144.7351904},"travel_mode":"DRIVING"},{"distance":{"text":"0.2 km","value":167},"duration":{"text":"1 min","value":31},"end_location":{"lat":-37.8847052,"lng":144.7333864},"html_instructions":"Turn <b>right</b> onto <b>Dunnings Rd</b>","maneuver":"turn-right","polyline":{"points":"xjffFqqkrZXBANEn@Eh@IbBGrAEt@"},"start_location":{"lat":-37.8847664,"lng":144.7351338},"travel_mode":"DRIVING"},{"distance":{"text":"0.7 km","value":678},"duration":{"text":"1 min","value":52},"end_location":{"lat":-37.8903583,"lng":144.7323832},"html_instructions":"Turn <b>left</b> onto <b>Boardwalk Blvd</b>","maneuver":"turn-left","polyline":{"points":"ljffFufkrZ@J@H@LB`@@LDRx@Hr@Ff@HbAFhAJbALf@FtANTBF@F?D@B?F?H?H?F?HAH?F??AF@F?FAF?F?F?FAD?@?FAFAFAFAFAFAFADA@?DADCFADADCFADCDADADAHCHCFAFADCFAF?FAFAFAF?FAD?DA^@b@DJ@B?D@F@D@D@D@DBF@D@DBD@DBDBD@DBDBDBDBDDBBDBDD"},"start_location":{"lat":-37.8847052,"lng":144.7333864},"travel_mode":"DRIVING"},{"distance":{"text":"0.2 km","value":205},"duration":{"text":"1 min","value":23},"end_location":{"lat":-37.8906602,"lng":144.7346755},"html_instructions":"Turn <b>left</b> onto <b>Juniper Ave</b>","maneuver":"turn-left","polyline":{"points":"vmgfFk`krZFWBM@E@Wj@gK"},"start_location":{"lat":-37.8903583,"lng":144.7323832},"travel_mode":"DRIVING"},{"distance":{"text":"0.2 km","value":245},"duration":{"text":"1 min","value":28},"end_location":{"lat":-37.8927245,"lng":144.7343005},"html_instructions":"Turn <b>right</b> onto <b>Moncrieff Parade</b><div style=\"font-size:0.9em\">Go through 1 roundabout</div>","maneuver":"turn-right","polyline":{"points":"rogfFwnkrZjALr@H?A?A@A?A?A@??A?A@??A@??A@??A@?@?@?@?@?@?@?@@@??@@??@@??@?@@??@?@?@@??@?@?@?@?@dCXpBR"},"start_location":{"lat":-37.8906602,"lng":144.7346755},"travel_mode":"DRIVING"},{"distance":{"text":"83 m","value":83},"duration":{"text":"1 min","value":15},"end_location":{"lat":-37.8926175,"lng":144.7333609},"html_instructions":"Turn <b>right</b> onto <b>Namatjira Dr</b>","maneuver":"turn-right","polyline":{"points":"n|gfFklkrZIzAI~A"},"start_location":{"lat":-37.8927245,"lng":144.7343005},"travel_mode":"DRIVING"},{"distance":{"text":"77 m","value":77},"duration":{"text":"1 min","value":26},"end_location":{"lat":-37.893218,"lng":144.7331149},"html_instructions":"Turn <b>left</b> onto <b>Grainger Cct</b>","maneuver":"turn-left","polyline":{"points":"z{gfFofkrZrANN@D@B@DB@@?@@B?B?B?B?B"},"start_location":{"lat":-37.8926175,"lng":144.7333609},"travel_mode":"DRIVING"}],"traffic_speed_entry":[],"via_waypoint":[]},{"distance":{"text":"8.3 km","value":8289},"duration":{"text":"9 mins","value":561},"end_address":"Princes Fwy, Cocoroc VIC 3030, Australia","end_location":{"lat":-37.9203744,"lng":144.656693},"start_address":"10 Sidney Nolan Walk, Point Cook VIC 3030, Australia","start_location":{"lat":-37.893218,"lng":144.7331149},"steps":[{"distance":{"text":"11 m","value":11},"duration":{"text":"1 min","value":1},"end_location":{"lat":-37.8931986,"lng":144.7332348},"html_instructions":"Head <b>east</b> on <b>Grainger Cct</b>","polyline":{"points":"r_hfF}dkrZ?C?C?C?CAC?AAA"},"start_location":{"lat":-37.893218,"lng":144.7331149},"travel_mode":"DRIVING"},{"distance":{"text":"66 m","value":66},"duration":{"text":"1 min","value":10},"end_location":{"lat":-37.8926175,"lng":144.7333609},"html_instructions":"Turn <b>left</b> to stay on <b>Grainger Cct</b>","maneuver":"turn-left","polyline":{"points":"n_hfFuekrZECCAEAOAsAO"},"start_location":{"lat":-37.8931986,"lng":144.7332348},"travel_mode":"DRIVING"},{"distance":{"text":"83 m","value":83},"duration":{"text":"1 min","value":20},"end_location":{"lat":-37.8927245,"lng":144.7343005},"html_instructions":"Turn <b>right</b> at the 1st cross street onto <b>Namatjira Dr</b>","maneuver":"turn-right","polyline":{"points":"z{gfFofkrZH_BH{A"},"start_location":{"lat":-37.8926175,"lng":144.7333609},"travel_mode":"DRIVING"},{"distance":{"text":"0.2 km","value":153},"duration":{"text":"1 min","value":36},"end_location":{"lat":-37.8940815,"lng":144.7341372},"html_instructions":"Turn <b>right</b> onto <b>Moncrieff Parade</b>","maneuver":"turn-right","polyline":{"points":"n|gfFklkrZbBPfBRf@BD?B?FCHE"},"start_location":{"lat":-37.8927245,"lng":144.7343005},"travel_mode":"DRIVING"},{"distance":{"text":"23 m","value":23},"duration":{"text":"1 min","value":3},"end_location":{"lat":-37.8942224,"lng":144.7339497},"html_instructions":"Turn <b>right</b> onto <b>Bronhill Vista</b>","maneuver":"turn-right","polyline":{"points":"~dhfFkkkrZDF@BB@BD@@@@BDBF"},"start_location":{"lat":-37.8940815,"lng":144.7341372},"travel_mode":"DRIVING"},{"distance":{"text":"0.4 km","value":428},"duration":{"text":"1 min","value":62},"end_location":{"lat":-37.8979113,"lng":144.7334038},"html_instructions":"Turn <b>left</b> onto <b>Menzies Ave</b><div style=\"font-size:0.9em\">Go through 1 roundabout</div>","maneuver":"turn-left","polyline":{"points":"zehfFejkrZLEFABAB?F?fBRb@DpD^NBzANrAND??A?A@A?A?A@A?A@??A@??A@??A@?@?@A@?@@@?@?@@@@@@?@@??@?@@??@?@?@?@?@?@?@vBND?VB"},"start_location":{"lat":-37.8942224,"lng":144.7339497},"travel_mode":"DRIVING"},{"distance":{"text":"2.2 km","value":2176},"duration":{"text":"3 mins","value":186},"end_location":{"lat":-37.8986132,"lng":144.7100537},"html_instructions":"Turn <b>right</b> onto <b>Sneydes Rd</b>","maneuver":"turn-right","polyline":{"points":"||hfFwfkrZ^HM|BG~@YvE?PS`DC\\WjDAj@MdBQfBC^Ev@GhASxC?B?LMtBC\\C`@ANGvAQxC?BAPEnAMdEElAGnAK~AUbDAXATAJO|CAVANC\\ARObDEbAEp@KlAEbB?DCf@Ir@KbCA~@?r@F~@?HH`@DZX~@\\t@Xf@nAbBV^t@~@X\\p@|@|@nAh@|@BHVfABLHj@@FFp@Dn@?l@"},"start_location":{"lat":-37.8979113,"lng":144.7334038},"travel_mode":"DRIVING"},{"distance":{"text":"0.7 km","value":666},"duration":{"text":"1 min","value":41},"end_location":{"lat":-37.90094879999999,"lng":144.7035134},"html_instructions":"Take the ramp to <b>Princes Freeway</b>","maneuver":"ramp-left","polyline":{"points":"haifFytfrZF\\@P@N@NBNBPHXLBJBPDPHNLLLNNLRHXHRDN@J?D@P@N?D@N@v@@lB?Z?NBh@Bz@Fj@Fl@H^?BLf@Pn@Pj@Rf@^z@?BZl@Tb@Tb@JTHLZl@FJFNBH@F?HCL"},"start_location":{"lat":-37.8986132,"lng":144.7100537},"travel_mode":"DRIVING"},{"distance":{"text":"4.7 km","value":4683},"duration":{"text":"3 mins","value":202},"end_location":{"lat":-37.9203744,"lng":144.656693},"html_instructions":"Merge onto <b>M1</b>","maneuver":"merge","polyline":{"points":"|oifF}kerZbFvH`BdCrNlUV`@dAdB|FlJ\\n@jAvBR^Th@Tj@FPL\\Rj@Tn@Tx@T~@h@zBNh@ZrANh@ZpALh@|DzOBNd@tBzFrV?@Lf@?@v@fDt@bD?@x@fDh@|BxUtaA`EvPfHhZjEnQ|@zDF\\FPNn@n@dCLl@"},"start_location":{"lat":-37.90094879999999,"lng":144.7035134},"travel_mode":"DRIVING"}],"traffic_speed_entry":[],"via_waypoint":[]},{"distance":{"text":"6.9 km","value":6875},"duration":{"text":"9 mins","value":565},"end_address":"Main Dr, Cocoroc VIC 3030, Australia","end_location":{"lat":-37.9262334,"lng":144.6559125},"start_address":"Princes Fwy, Cocoroc VIC 3030, Australia","start_location":{"lat":-37.9203744,"lng":144.656693},"steps":[{"distance":{"text":"1.6 km","value":1650},"duration":{"text":"1 min","value":61},"end_location":{"lat":-37.9262441,"lng":144.6394126},"html_instructions":"Head <b>south-west</b> on <b>M1</b>","polyline":{"points":"himfFig|qZdF|SXhApAvFdAlE`AhEzAzG^|Ah@|BH^BHLh@?Db@`Bp@pCj@|BBHH^fAjE\\vA`FjS`@hB"},"start_location":{"lat":-37.9203744,"lng":144.656693},"travel_mode":"DRIVING"},{"distance":{"text":"0.5 km","value":481},"duration":{"text":"1 min","value":28},"end_location":{"lat":-37.9295111,"lng":144.6361725},"html_instructions":"Take the <b>C109</b>/<wbr/><b>Werribee</b> exit","maneuver":"ramp-left","polyline":{"points":"~mnfFi{xqZNJBB@B@BDFBFZbAd@zANd@HRZp@b@p@HLFFVXVTVRVNVNnDzAh@RlAd@\\P"},"start_location":{"lat":-37.9262441,"lng":144.6394126},"travel_mode":"DRIVING"},{"distance":{"text":"0.7 km","value":665},"duration":{"text":"1 min","value":50},"end_location":{"lat":-37.9254645,"lng":144.6314557},"html_instructions":"Turn <b>right</b> onto <b>Werribee Main Rd</b>/<wbr/><b>C109</b> (signs for <b>Werribee</b>)<div style=\"font-size:0.9em\">Go through 1 roundabout</div>","maneuver":"turn-right","polyline":{"points":"lbofFagxqZFL@D@F?D@H?N]Ns@XC@]L_@N{Al@mAh@SJi@Tq@Zs@b@IF[TSPYXEFQTSXIRKPIPOv@EPGb@@@@B?D?B?B?B?B?B?DADABABA@CBA@ABC@A@C@A?UXIJGJEFEHe@xAGPK\\GXIV"},"start_location":{"lat":-37.9295111,"lng":144.6361725},"travel_mode":"DRIVING"},{"distance":{"text":"1.3 km","value":1294},"duration":{"text":"2 mins","value":108},"end_location":{"lat":-37.91585329999999,"lng":144.6386673},"html_instructions":"At the roundabout, take the <b>3rd</b> exit onto <b>Princes Hwy</b>/<wbr/><b>C109</b>","maneuver":"roundabout-left","polyline":{"points":"binfFsiwqZ@@?@?@?@?@@??@?@?F?D?FADAFADCDCD?@A@A?C@A??@A?C?C?C?A?CACAC?CCAAAACAAAACAAAC?CAC?CUQEGGIIMCE?CEO[]CCOQGEUOg@_@YSQMMGWOGE]W_@WSMIGMKOMk@c@c@[AAIEQKKKMK{B}A}@m@}@o@_@UCCw@m@YUcAs@]W?A{@o@]WwBaB{@m@[S{AaAi@a@s@e@aDaCMIq@i@OKA?_@WkA}@]O"},"start_location":{"lat":-37.9254645,"lng":144.6314557},"travel_mode":"DRIVING"},{"distance":{"text":"0.9 km","value":858},"duration":{"text":"2 mins","value":106},"end_location":{"lat":-37.9191818,"lng":144.6471611},"html_instructions":"Turn <b>right</b> onto <b>Newmarket Rd</b><div style=\"font-size:0.9em\">Go through 2 roundabouts</div>","maneuver":"turn-right","polyline":{"points":"`mlfFuvxqZDIPg@Re@DOpBsFzCsHAAAA?AA??A?AAA?A?A?A?A?A?A?A?A@??A?A@A?A@??A@A@??A@?@A@?@?@?@?@?@??@@?@@@@|@kCfAsCf@uARy@?AA??A?A?A?A?A?A?A?A@A?A?A@??A@??A@?@A@?@?Vo@BO?CBOD[@O?CLeAFk@@IX_CTwABO?m@?G"},"start_location":{"lat":-37.91585329999999,"lng":144.6386673},"travel_mode":"DRIVING"},{"distance":{"text":"0.6 km","value":563},"duration":{"text":"1 min","value":52},"end_location":{"lat":-37.9240129,"lng":144.6464376},"html_instructions":"At the roundabout, take the <b>3rd</b> exit onto <b>Farm Rd</b>","maneuver":"roundabout-left","polyline":{"points":"zamfFwkzqZ?AA??A?AA??A?A?AAA?A?A?A@A?A?A?A@??A?A@??A@??A@??A@?@??A@?@?@?@?@??@@?@??@@??@@??@@??@@@?@v@VlJ|@dDZh@DpD\\T@h@F~@H"},"start_location":{"lat":-37.9191818,"lng":144.6471611},"travel_mode":"DRIVING"},{"distance":{"text":"0.2 km","value":204},"duration":{"text":"1 min","value":20},"end_location":{"lat":-37.92583279999999,"lng":144.6461567},"html_instructions":"Continue onto <b>Metropolitan Farm Rd</b>","polyline":{"points":"``nfFggzqZtE`@tCT"},"start_location":{"lat":-37.9240129,"lng":144.6464376},"travel_mode":"DRIVING"},{"distance":{"text":"1.2 km","value":1160},"duration":{"text":"2 mins","value":140},"end_location":{"lat":-37.9262334,"lng":144.6559125},"html_instructions":"Turn <b>left</b> onto <b>Main Dr</b><div style=\"font-size:0.9em\">Restricted-usage road</div><div style=\"font-size:0.9em\">Destination will be on the left</div>","maneuver":"turn-left","polyline":{"points":"lknfFoezqZFgA@SAOCUCQGYWo@Se@]m@q@{@eAaAi@k@OSKQKSIQY{@q@{BMo@m@}C}@gEQo@a@uAKc@CKAKEQAQAK?I@Q@MBKBK@EHSJQJQHMFIBCDGFIFGFEDCDCFEp@Yf@UZQ`@Q@ALGPKLIFEbAk@p@c@JI|@q@dAs@|@q@"},"start_location":{"lat":-37.92583279999999,"lng":144.6461567},"travel_mode":"DRIVING"}],"traffic_speed_entry":[],"via_waypoint":[]},{"distance":{"text":"10.3 km","value":10338},"duration":{"text":"17 mins","value":998},"end_address":"12 Artfield Dr, Werribee VIC 3030, Australia","end_location":{"lat":-37.9041992,"lng":144.5946622},"start_address":"Main Dr, Cocoroc VIC 3030, Australia","start_location":{"lat":-37.9262334,"lng":144.6559125},"steps":[{"distance":{"text":"1.2 km","value":1160},"duration":{"text":"2 mins","value":138},"end_location":{"lat":-37.92583279999999,"lng":144.6461567},"html_instructions":"Head <b>north-west</b> on <b>Main Dr</b> towards <b>Metropolitan Farm Rd</b><div style=\"font-size:0.9em\">Restricted-usage road</div>","polyline":{"points":"|mnfFmb|qZ}@p@eAr@}@p@KHq@b@cAj@GDMHQJMFA@a@P[Pg@Tq@XGDEBEBGDGFGHEFCBGHILKPKPIRADCJCJALAP?H@J@PDP@JBJJb@`@tAPn@|@fEl@|CLn@p@zBXz@HPJRJPNRh@j@dA`Ap@z@\\l@Rd@Vn@FXBPBT@NARGfA"},"start_location":{"lat":-37.9262334,"lng":144.6559125},"travel_mode":"DRIVING"},{"distance":{"text":"0.2 km","value":204},"duration":{"text":"1 min","value":29},"end_location":{"lat":-37.9240129,"lng":144.6464376},"html_instructions":"Turn <b>right</b> onto <b>Metropolitan Farm Rd</b>","maneuver":"turn-right","polyline":{"points":"lknfFoezqZuCUuEa@"},"start_location":{"lat":-37.92583279999999,"lng":144.6461567},"travel_mode":"DRIVING"},{"distance":{"text":"0.5 km","value":527},"duration":{"text":"1 min","value":48},"end_location":{"lat":-37.9193155,"lng":144.6471695},"html_instructions":"Continue onto <b>Farm Rd</b>","polyline":{"points":"``nfFggzqZ_AIi@GUAqD]i@EeD[mJ}@c@?U?"},"start_location":{"lat":-37.9240129,"lng":144.6464376},"travel_mode":"DRIVING"},{"distance":{"text":"0.9 km","value":857},"duration":{"text":"2 mins","value":110},"end_location":{"lat":-37.9158831,"lng":144.638722},"html_instructions":"At the roundabout, take the <b>1st</b> exit onto <b>Newmarket Rd</b><div style=\"font-size:0.9em\">Go through 2 roundabouts</div>","maneuver":"roundabout-left","polyline":{"points":"vbmfFykzqZA??@A@A??@A?A@CDMh@CNUvAY~BAHGj@MdA?BANEZCN?BCNIt@?@?@@??@?@?@?@?@?@?@?@A@?@A@?@A??@A??@A?A?A??@A?_@n@g@tAgArC}@jC@@?@@??@?@@??@?@?@?@?@?@?@?@?@?@A@?@A@?@A??@A??@A?A@A?A?A?A?A?A?A??AA?AA{CrHqBrFENSd@Qf@"},"start_location":{"lat":-37.9193155,"lng":144.6471695},"travel_mode":"DRIVING"},{"distance":{"text":"0.2 km","value":248},"duration":{"text":"1 min","value":22},"end_location":{"lat":-37.9177573,"lng":144.637192},"html_instructions":"Turn <b>left</b> onto <b>Princes Hwy</b>/<wbr/><b>C109</b>","maneuver":"turn-left","polyline":{"points":"fmlfF_wxqZVXjA|@^V@?NJp@h@LH`D`C"},"start_location":{"lat":-37.9158831,"lng":144.638722},"travel_mode":"DRIVING"},{"distance":{"text":"0.2 km","value":173},"duration":{"text":"1 min","value":22},"end_location":{"lat":-37.9173921,"lng":144.6353065},"html_instructions":"Turn <b>right</b> onto <b>Wagner Dr</b>","maneuver":"turn-right","polyline":{"points":"~xlfFmmxqZGLKXGLAFCHAFABCVQvCEl@GdA"},"start_location":{"lat":-37.9177573,"lng":144.637192},"travel_mode":"DRIVING"},{"distance":{"text":"0.2 km","value":170},"duration":{"text":"1 min","value":24},"end_location":{"lat":-37.9189022,"lng":144.6350187},"html_instructions":"Turn <b>left</b> onto <b>Valda Way</b>","maneuver":"turn-left","polyline":{"points":"tvlfFuaxqZjCV`D`@"},"start_location":{"lat":-37.9173921,"lng":144.6353065},"travel_mode":"DRIVING"},{"distance":{"text":"0.2 km","value":230},"duration":{"text":"1 min","value":32},"end_location":{"lat":-37.9186057,"lng":144.6324272},"html_instructions":"Turn <b>right</b> onto <b>Winscombe Rd</b>","maneuver":"turn-right","polyline":{"points":"b`mfF{_xqZQdDSlDIxAIvA"},"start_location":{"lat":-37.9189022,"lng":144.6350187},"travel_mode":"DRIVING"},{"distance":{"text":"0.2 km","value":150},"duration":{"text":"1 min","value":20},"end_location":{"lat":-37.9199401,"lng":144.6322077},"html_instructions":"Turn <b>left</b> onto <b>Folkestone Rd</b>","maneuver":"turn-left","polyline":{"points":"h~lfFuowqZR@ZBdAJ\\Bf@FlAL"},"start_location":{"lat":-37.9186057,"lng":144.6324272},"travel_mode":"DRIVING"},{"distance":{"text":"1.1 km","value":1067},"duration":{"text":"1 min","value":70},"end_location":{"lat":-37.9185175,"lng":144.6201764},"html_instructions":"Turn <b>right</b> onto <b>Alfred Rd</b>","maneuver":"turn-right","polyline":{"points":"rfmfFinwqZAL?DC\\CRCj@Ej@Ej@?DEd@Cj@Ej@Ej@?HEf@AZCj@ANCZ?NCZANAZANCf@C`@ANCZANEh@IlACl@AJGlAALAPAL?DADEl@IlA?JKrACf@?DEf@?DCj@?@UtDCl@Cf@ADCl@CZG|@Cd@Et@Ef@?DCb@AFCh@?BEl@ItAADCl@Ef@?BEh@Cj@"},"start_location":{"lat":-37.9199401,"lng":144.6322077},"travel_mode":"DRIVING"},{"distance":{"text":"0.3 km","value":303},"duration":{"text":"1 min","value":24},"end_location":{"lat":-37.9158333,"lng":144.6207352},"html_instructions":"Turn <b>right</b> onto <b>Browns Rd</b>","maneuver":"turn-right","polyline":{"points":"v}lfFccuqZg@GgAQ[EmAMgAKeAKu@Iq@I[CSEKCMG"},"start_location":{"lat":-37.9185175,"lng":144.6201764},"travel_mode":"DRIVING"},{"distance":{"text":"0.4 km","value":423},"duration":{"text":"1 min","value":34},"end_location":{"lat":-37.9136323,"lng":144.6234842},"html_instructions":"Continue onto <b>Galvin Rd</b>","polyline":{"points":"|llfFsfuqZIKIOKYw@oCCG]qA]qAOi@m@{BSs@CMEGEGEEGCOGQ?GBE@GBUL_Ad@EFCBGDGBGB"},"start_location":{"lat":-37.9158333,"lng":144.6207352},"travel_mode":"DRIVING"},{"distance":{"text":"0.1 km","value":138},"duration":{"text":"1 min","value":16},"end_location":{"lat":-37.9124792,"lng":144.6230409},"html_instructions":"At the roundabout, continue straight","maneuver":"roundabout-left","polyline":{"points":"d_lfFwwuqZ?@?@A@?@?@A??@A??@A?A@A?A?A?A?A?A??AA?GDEDG@c@PGB_@NGBSFG?I@G?W@GBU@"},"start_location":{"lat":-37.9136323,"lng":144.6234842},"travel_mode":"DRIVING"},{"distance":{"text":"1.5 km","value":1451},"duration":{"text":"2 mins","value":107},"end_location":{"lat":-37.911316,"lng":144.6091382},"html_instructions":"At the roundabout, take the <b>1st</b> exit","maneuver":"roundabout-left","polyline":{"points":"~wkfF_uuqZA@A@A@A?A@A?A?A?CTCPA@If@AXCd@?FKxAKxAAHGv@@~@@DFd@@BXn@NXZb@d@b@LPNRP\\JTBFJr@BXBl@Dj@Dl@?HD`@Dl@?FH`@HZXr@`@t@JN`@n@LR~@zAFHHDBBDDFJDJBL@H?D?FCPEJOTo@v@OPqAxAY\\[\\A@q@z@s@~@MNu@~@ILi@~@CDSd@INY|@Qh@Of@MZMt@Mj@?@Ih@Ij@Gv@AXCh@ABCl@Cj@ADCf@A\\"},"start_location":{"lat":-37.9124792,"lng":144.6230409},"travel_mode":"DRIVING"},{"distance":{"text":"0.4 km","value":394},"duration":{"text":"1 min","value":28},"end_location":{"lat":-37.9107031,"lng":144.6047577},"html_instructions":"Continue onto <b>Ison Rd</b>","polyline":{"points":"vpkfFc~rqZGl@ATGbAE~@CXCl@Ej@Cl@Ej@Cl@Cl@Ej@El@Cj@El@C`@?HIxACNAJCHAD?@CDEDCBE@"},"start_location":{"lat":-37.911316,"lng":144.6091382},"travel_mode":"DRIVING"},{"distance":{"text":"1.3 km","value":1332},"duration":{"text":"2 mins","value":102},"end_location":{"lat":-37.89893989999999,"lng":144.604756},"html_instructions":"<b>Ison Rd</b> turns <b>right</b> and becomes <b>Armstrong Rd</b>","polyline":{"points":"zlkfFwbrqZM@A?QAQAa@EgAKK?WEc@Ec@Ea@EgAKc@ESCgAMc@GMAUCQCOCYEk@MEA]Ga@KMCUEQC_@Ie@E[EYAUAMA_@GC?[Eo@K[EYAU?a@?u@Dm@F_APu@RwA`@mAZYHoA\\gCp@]HI@s@Ps@JSBO@Y@m@?eAC{@IMAeAGKAWAUASC"},"start_location":{"lat":-37.9107031,"lng":144.6047577},"travel_mode":"DRIVING"},{"distance":{"text":"0.6 km","value":643},"duration":{"text":"1 min","value":53},"end_location":{"lat":-37.8981315,"lng":144.5975363},"html_instructions":"Turn <b>left</b> onto <b>Black Forest Rd</b>","maneuver":"turn-left","polyline":{"points":"jcifFwbrqZ[xDAVKlBEz@OjBAJCl@APAXIzAWjESlDEr@Cf@?DAVKbB?@QfC?F?B?@?@@@@BB@"},"start_location":{"lat":-37.89893989999999,"lng":144.604756},"travel_mode":"DRIVING"},{"distance":{"text":"0.2 km","value":243},"duration":{"text":"1 min","value":23},"end_location":{"lat":-37.9002857,"lng":144.5972105},"html_instructions":"<b>Black Forest Rd</b> turns <b>left</b> and becomes <b>Grandvista Bvd</b>","polyline":{"points":"h~hfFsupqZFCBA@AB?D?D@J@f@DrAJn@HzAPr@HhAL"},"start_location":{"lat":-37.8981315,"lng":144.5975363},"travel_mode":"DRIVING"},{"distance":{"text":"0.5 km","value":471},"duration":{"text":"1 min","value":60},"end_location":{"lat":-37.90437440000001,"lng":144.5964086},"html_instructions":"At the roundabout, continue straight to stay on <b>Grandvista Bvd</b><div style=\"font-size:0.9em\">Go through 1 roundabout</div>","maneuver":"roundabout-left","polyline":{"points":"xkifFqspqZ?A@A@A@A@??A@?@?@?@?@?@?@?@@@??@@??@@??@@??@@@?@JDNDFBDDt@HtANTBxALDA@?F?P?N??A@??A@A@A@??A@?@??A@?@?@?@??@@?@??@@?@@@@?@@??@?@@?HDFDHDHFxAPZBl@F~ANfAJD?ZD"},"start_location":{"lat":-37.9002857,"lng":144.5972105},"travel_mode":"DRIVING"},{"distance":{"text":"0.2 km","value":154},"duration":{"text":"1 min","value":36},"end_location":{"lat":-37.9041992,"lng":144.5946622},"html_instructions":"Turn <b>right</b> onto <b>Artfield Dr</b>","maneuver":"turn-right","polyline":{"points":"hejfFqnpqZCr@Cl@ARAXEl@O~C"},"start_location":{"lat":-37.90437440000001,"lng":144.5964086},"travel_mode":"DRIVING"}],"traffic_speed_entry":[],"via_waypoint":[]},{"distance":{"text":"1 m","value":0},"duration":{"text":"1 min","value":0},"end_address":"Unnamed Road, Werribee VIC 3030, Australia","end_location":{"lat":-37.9041992,"lng":144.5946622},"start_address":"12 Artfield Dr, Werribee VIC 3030, Australia","start_location":{"lat":-37.9041992,"lng":144.5946622},"steps":[{"distance":{"text":"1 m","value":0},"duration":{"text":"1 min","value":0},"end_location":{"lat":-37.9041992,"lng":144.5946622},"html_instructions":"Head","polyline":{"points":"fdjfFscpqZ"},"start_location":{"lat":-37.9041992,"lng":144.5946622},"travel_mode":"DRIVING"}],"traffic_speed_entry":[],"via_waypoint":[]},{"distance":{"text":"5.0 km","value":4962},"duration":{"text":"10 mins","value":576},"end_address":"Wyndham Vale, Armstrong Rd, Wyndham Vale VIC 3024, Australia","end_location":{"lat":-37.8721935,"lng":144.6082313},"start_address":"Unnamed Road, Werribee VIC 3030, Australia","start_location":{"lat":-37.9041992,"lng":144.5946622},"steps":[{"distance":{"text":"71 m","value":71},"duration":{"text":"1 min","value":9},"end_location":{"lat":-37.9042817,"lng":144.5954629},"html_instructions":"Head <b>east</b> towards <b>Bankston Rd</b>","polyline":{"points":"fdjfFscpqZN_D"},"start_location":{"lat":-37.9041992,"lng":144.5946622},"travel_mode":"DRIVING"},{"distance":{"text":"84 m","value":84},"duration":{"text":"1 min","value":21},"end_location":{"lat":-37.90437440000001,"lng":144.5964086},"html_instructions":"Continue onto <b>Artfield Dr</b>","polyline":{"points":"vdjfFshpqZDm@@Y@SBm@Bs@"},"start_location":{"lat":-37.9042817,"lng":144.5954629},"travel_mode":"DRIVING"},{"distance":{"text":"0.4 km","value":445},"duration":{"text":"1 min","value":77},"end_location":{"lat":-37.90044839999999,"lng":144.5970544},"html_instructions":"Turn <b>left</b> onto <b>Grandvista Bvd</b><div style=\"font-size:0.9em\">Go through 1 roundabout</div>","maneuver":"turn-left","polyline":{"points":"hejfFqnpqZ[EE?gAK_BOm@G[CyAQI@E?MAK??@A??@A??@A?A@A?A?A?A?A?A?AAA??AA??AA??AA??A?AAAMCEAQGCAECyAMUCuAOu@IK@Q?MB"},"start_location":{"lat":-37.90437440000001,"lng":144.5964086},"travel_mode":"DRIVING"},{"distance":{"text":"0.3 km","value":269},"duration":{"text":"1 min","value":29},"end_location":{"lat":-37.8981315,"lng":144.5975363},"html_instructions":"At the roundabout, continue straight to stay on <b>Grandvista Bvd</b>","maneuver":"roundabout-left","polyline":{"points":"xlifFqrpqZA??@A@A@A??@A?A?A?A??@AAA?A?A??AA?AAA??AAA?AA??A?AA??AwBUaCUI?mBO_@EICCACACA?AAA?AAA?E"},"start_location":{"lat":-37.90044839999999,"lng":144.5970544},"travel_mode":"DRIVING"},{"distance":{"text":"0.6 km","value":643},"duration":{"text":"1 min","value":58},"end_location":{"lat":-37.89893989999999,"lng":144.604756},"html_instructions":"<b>Grandvista Bvd</b> turns slightly <b>right</b> and becomes <b>Black Forest Rd</b>","polyline":{"points":"h~hfFsupqZCAACAA?A?A?C?GPgC?AJcB@W?EBg@Ds@RmDVkEH{A@Y@QBm@@KNkBD{@JmB@WZyD"},"start_location":{"lat":-37.8981315,"lng":144.5975363},"travel_mode":"DRIVING"},{"distance":{"text":"2.5 km","value":2495},"duration":{"text":"3 mins","value":187},"end_location":{"lat":-37.8767181,"lng":144.608151},"html_instructions":"Turn <b>left</b> onto <b>Armstrong Rd</b>","maneuver":"turn-left","polyline":{"points":"jcifFwbrqZYGe@Ck@Es@GWCqBSC?CA[SSAqCWw@EwAKmBK{@GEAk@EyAOQAIA}BUuF[E?SEeAK}CWqAKQAuCSgBIo@AIBC@I@K?KA]C]CgCOe@GIA]EeBSm@EYE}C]YC[QmC[qDa@eAMA?SCMCsEu@e@I]G_@IUC]Eo@C{@EeBGs@E}@GIAYAg@CQAaHY_BIOHYAi@EKAc@C"},"start_location":{"lat":-37.89893989999999,"lng":144.604756},"travel_mode":"DRIVING"},{"distance":{"text":"0.2 km","value":237},"duration":{"text":"1 min","value":23},"end_location":{"lat":-37.8764916,"lng":144.6057887},"html_instructions":"Turn <b>left</b> onto <b>Manor Lakes Blvd</b>","maneuver":"turn-left","polyline":{"points":"nxdfF}wrqZEBA@GBEBG@I@I@EBCBKJA\\Ch@AX?T?`@Bx@@r@Dd@NxADf@"},"start_location":{"lat":-37.8767181,"lng":144.608151},"travel_mode":"DRIVING"},{"distance":{"text":"0.4 km","value":442},"duration":{"text":"1 min","value":70},"end_location":{"lat":-37.8725576,"lng":144.6061141},"html_instructions":"Turn <b>right</b> onto <b>Howqua Way</b>","maneuver":"turn-right","polyline":{"points":"`wdfFeirqZSDaC\\[@G?I?SAEAc@EeAMUCQCKAa@GUCMAUCa@EMCUCKAgAMSAOAA?a@EA?a@CC?]CEAK?"},"start_location":{"lat":-37.8764916,"lng":144.6057887},"travel_mode":"DRIVING"},{"distance":{"text":"0.2 km","value":184},"duration":{"text":"1 min","value":71},"end_location":{"lat":-37.8730133,"lng":144.6080885},"html_instructions":"Turn <b>right</b> onto <b>Scholar Dr</b>","maneuver":"turn-right","polyline":{"points":"n~cfFekrqZDm@?ADi@Fq@?I@G@IBG?A@E@A@EDEBGDE@ABEDIBGBG@IBI@I?IDs@Dm@?K"},"start_location":{"lat":-37.8725576,"lng":144.6061141},"travel_mode":"DRIVING"},{"distance":{"text":"92 m","value":92},"duration":{"text":"1 min","value":31},"end_location":{"lat":-37.8721935,"lng":144.6082313},"html_instructions":"Turn <b>left</b> onto <b>Academy Way</b><div style=\"font-size:0.9em\">Destination will be on the right</div>","maneuver":"turn-left","polyline":{"points":"hadfFqwrqZSAOCYE}AQA?C?A@"},"start_location":{"lat":-37.8730133,"lng":144.6080885},"travel_mode":"DRIVING"}],"traffic_speed_entry":[],"via_waypoint":[]},{"distance":{"text":"2.4 km","value":2448},"duration":{"text":"5 mins","value":311},"end_address":"40 Bregman Esplanade, Wyndham Vale VIC 3024, Australia","end_location":{"lat":-37.8703167,"lng":144.5884712},"start_address":"Wyndham Vale, Armstrong Rd, Wyndham Vale VIC 3024, Australia","start_location":{"lat":-37.8721935,"lng":144.6082313},"steps":[{"distance":{"text":"8 m","value":8},"duration":{"text":"1 min","value":1},"end_location":{"lat":-37.8721378,"lng":144.6081843},"html_instructions":"Head <b>north-west</b> on <b>Academy Way</b> towards <b>Eureka Dr</b>","polyline":{"points":"d|cfFmxrqZC@EF"},"start_location":{"lat":-37.8721935,"lng":144.6082313},"travel_mode":"DRIVING"},{"distance":{"text":"1.4 km","value":1445},"duration":{"text":"3 mins","value":201},"end_location":{"lat":-37.8676584,"lng":144.5935603},"html_instructions":"Turn <b>left</b> onto <b>Eureka Dr</b><div style=\"font-size:0.9em\">Go through 1 roundabout</div>","maneuver":"turn-left","polyline":{"points":"z{cfFcxrqZCDAHCZAJ?D?D?D?B?D?D?D?B?D@D?B@PFl@@R@D?D?D?D@D?D?D?D?D?DAD?D?DCd@Ej@El@APCj@El@Ej@SdDCl@[`FEj@Cl@AJGfAALEf@ABGl@IzBA@Cj@?@El@G~@Cf@AH?FAHAFAH?BABAHAFAFAHA@?DCFAHCFAFCFAFCFCFCFCFCFCFCDCFCFEDCFa@p@]j@eAfB_@l@QZc@r@?@@??@@??@?@@??@?@?@@??@?@?@?@A??@?@?@A@?@A??@A??@A??@A?A?A?A?A?A?A??AA??AA??AYb@{@xAo@dAU`@[d@IPuCzEMd@GNCJKZGNETG^AFKx@?B"},"start_location":{"lat":-37.8721378,"lng":144.6081843},"travel_mode":"DRIVING"},{"distance":{"text":"0.5 km","value":500},"duration":{"text":"1 min","value":41},"end_location":{"lat":-37.8664595,"lng":144.5881438},"html_instructions":"Continue onto <b>Holyoake Parade</b>","polyline":{"points":"z_cfFw|oqZE^Mn@Mh@GZELENEJGHEJIVKRGPCJADCFAFAD?@ADAFOp@CLADAFCLCLCLCLALCLCLALAHABALALCLALALAL?@ALALAREl@QbCCl@ANAN?J?BALAN?J?B?NAL?J?BATAP?H"},"start_location":{"lat":-37.8676584,"lng":144.5935603},"travel_mode":"DRIVING"},{"distance":{"text":"0.5 km","value":495},"duration":{"text":"1 min","value":68},"end_location":{"lat":-37.8703167,"lng":144.5884712},"html_instructions":"Turn <b>left</b> onto <b>Bregman Esplanade</b>","maneuver":"turn-left","polyline":{"points":"jxbfF{znqZREF?BALAPEBAPIHE`@Q^S`@QJCd@Ql@SDAZKDAXKDA@?VIDA`@MRAN@@@J@D@N@B@B?LFB@B@BB@@LJJPNVBJ@@HNHP?@Rb@@@VZ@BFDD@F?HEBCFGNOFEPMBCVYBC"},"start_location":{"lat":-37.8664595,"lng":144.5881438},"travel_mode":"DRIVING"}],"traffic_speed_entry":[],"via_waypoint":[]},{"distance":{"text":"1.4 km","value":1408},"duration":{"text":"3 mins","value":169},"end_address":"25 Honeycomb Ave, Manor Lakes VIC 3024, Australia","end_location":{"lat":-37.861838,"lng":144.5903794},"start_address":"40 Bregman Esplanade, Wyndham Vale VIC 3024, Australia","start_location":{"lat":-37.8703167,"lng":144.5884712},"steps":[{"distance":{"text":"0.5 km","value":495},"duration":{"text":"1 min","value":63},"end_location":{"lat":-37.8664595,"lng":144.5881438},"html_instructions":"Head <b>north-west</b> on <b>Bregman Esplanade</b> towards <b>Firecrest Rd</b>","polyline":{"points":"npcfF}|nqZCBWXCBQLGDONGFCBIDG?EAGEACW[AASc@?AIQIOAACKOWKQMKAACCCACAMGC?CAOAEAKAAAOAS@a@LE@WHA?E@YJE@[JE@m@Re@PKBa@P_@Ra@PIDQHC@QDM@C@G?SD"},"start_location":{"lat":-37.8703167,"lng":144.5884712},"travel_mode":"DRIVING"},{"distance":{"text":"0.2 km","value":183},"duration":{"text":"1 min","value":16},"end_location":{"lat":-37.8666686,"lng":144.5902081},"html_instructions":"Turn <b>right</b> onto <b>Holyoake Parade</b>","maneuver":"turn-right","polyline":{"points":"jxbfF{znqZ?I@Q@U?C?K@M?O?C?K@O@M?C?K@O@OBm@PcCDm@"},"start_location":{"lat":-37.8664595,"lng":144.5881438},"travel_mode":"DRIVING"},{"distance":{"text":"0.5 km","value":465},"duration":{"text":"1 min","value":50},"end_location":{"lat":-37.8631253,"lng":144.592808},"html_instructions":"Turn <b>left</b> onto <b>Spearmint Bvd</b>","maneuver":"turn-left","polyline":{"points":"tybfFygoqZgAOiAOA?cAW{@c@[SGIGIWO]W][y@u@SSc@e@SUY[]]GIMMKOQQII?AY[AAW["},"start_location":{"lat":-37.8666686,"lng":144.5902081},"travel_mode":"DRIVING"},{"distance":{"text":"0.3 km","value":265},"duration":{"text":"1 min","value":40},"end_location":{"lat":-37.861838,"lng":144.5903794},"html_instructions":"Turn <b>left</b> onto <b>Honeycomb Ave</b>","maneuver":"turn-left","polyline":{"points":"pcbfFaxoqZ]l@EDQZCFQZEDQZEHGJMRABU\\ABm@dAEFCDGLKNCDCDMXCNEP?LAP@R@D@J"},"start_location":{"lat":-37.8631253,"lng":144.592808},"travel_mode":"DRIVING"}],"traffic_speed_entry":[],"via_waypoint":[]},{"distance":{"text":"4.2 km","value":4176},"duration":{"text":"5 mins","value":307},"end_address":"Spring Plains Rd, Wyndham Vale VIC 3024, Australia","end_location":{"lat":-37.8392214,"lng":144.5845251},"start_address":"25 Honeycomb Ave, Manor Lakes VIC 3024, Australia","start_location":{"lat":-37.861838,"lng":144.5903794},"steps":[{"distance":{"text":"0.3 km","value":265},"duration":{"text":"1 min","value":52},"end_location":{"lat":-37.8631253,"lng":144.592808},"html_instructions":"Head <b>east</b> on <b>Honeycomb Ave</b> towards <b>Cherrywood Ave</b>","polyline":{"points":"n{afF{hoqZAKAEAS@Q?MDQBOLYBEBEJOFMBEDGl@eA@CT]@CLSFKDIP[DEP[BGP[DE\\m@"},"start_location":{"lat":-37.861838,"lng":144.5903794},"travel_mode":"DRIVING"},{"distance":{"text":"0.4 km","value":412},"duration":{"text":"1 min","value":47},"end_location":{"lat":-37.8602894,"lng":144.5958294},"html_instructions":"Turn <b>left</b> onto <b>Spearmint Bvd</b>","maneuver":"turn-left","polyline":{"points":"pcbfFaxoqZ{@}@QSIIY]A?Y[QSIIQS[[GIAAOQIIAAOQIIY[QSIIYa@IMw@w@OQ_@_@]_@_@_@SSKI"},"start_location":{"lat":-37.8631253,"lng":144.592808},"travel_mode":"DRIVING"},{"distance":{"text":"2.4 km","value":2398},"duration":{"text":"2 mins","value":125},"end_location":{"lat":-37.846243,"lng":144.5756892},"html_instructions":"Turn <b>left</b> onto <b>Ballan Rd</b>/<wbr/><b>C703</b>","maneuver":"turn-left","polyline":{"points":"xqafF}jpqZIAIGKIUQGCOIM`@m@vASd@IPILYf@qBhDeAhBgAhBg@z@gAfBU`@o@dAW`@CDSZm@dAsAxBQZW`@Wb@m@bAo@dAm@bA[f@sBlDm@dAo@bAUb@]h@]n@eAfBcAbBaAfBA@iAnBc@r@c@p@Ub@W`@W`@m@dAW`@W`@gDvFqCtEyR~["},"start_location":{"lat":-37.8602894,"lng":144.5958294},"travel_mode":"DRIVING"},{"distance":{"text":"1.1 km","value":1101},"duration":{"text":"1 min","value":83},"end_location":{"lat":-37.8392214,"lng":144.5845251},"html_instructions":"Turn <b>right</b> onto <b>Spring Plains Rd</b><div style=\"font-size:0.9em\">Restricted-usage road</div>","maneuver":"turn-right","polyline":{"points":"~y~eFamlqZiAqAyJcNoJuMqGuIY_@_BuBY_@eB_CEGQWGGKOMSAC"},"start_location":{"lat":-37.846243,"lng":144.5756892},"travel_mode":"DRIVING"}],"traffic_speed_entry":[],"via_waypoint":[]},{"distance":{"text":"1 m","value":0},"duration":{"text":"1 min","value":0},"end_address":"Spring Plains Rd, Wyndham Vale VIC 3024, Australia","end_location":{"lat":-37.8392214,"lng":144.5845251},"start_address":"Spring Plains Rd, Wyndham Vale VIC 3024, Australia","start_location":{"lat":-37.8392214,"lng":144.5845251},"steps":[{"distance":{"text":"1 m","value":0},"duration":{"text":"1 min","value":0},"end_location":{"lat":-37.8392214,"lng":144.5845251},"html_instructions":"Head on <b>Spring Plains Rd</b><div style=\"font-size:0.9em\">Restricted-usage road</div>","polyline":{"points":"bn}eFidnqZ"},"start_location":{"lat":-37.8392214,"lng":144.5845251},"travel_mode":"DRIVING"}],"traffic_speed_entry":[],"via_waypoint":[]},{"distance":{"text":"8.8 km","value":8776},"duration":{"text":"11 mins","value":640},"end_address":"1 Kent Ct, Werribee VIC 3030, Australia","end_location":{"lat":-37.89107449999999,"lng":144.6334575},"start_address":"Spring Plains Rd, Wyndham Vale VIC 3024, Australia","start_location":{"lat":-37.8392214,"lng":144.5845251},"steps":[{"distance":{"text":"1.1 km","value":1101},"duration":{"text":"1 min","value":86},"end_location":{"lat":-37.846243,"lng":144.5756892},"html_instructions":"Head <b>south-west</b> on <b>Spring Plains Rd</b> towards <b>Ballan Rd</b>/<wbr/><b>C703</b><div style=\"font-size:0.9em\">Restricted-usage road</div>","polyline":{"points":"bn}eFidnqZ@BLRJNFFPVDFdB~BX^~AtBX^pGtInJtMxJbNhApA"},"start_location":{"lat":-37.8392214,"lng":144.5845251},"travel_mode":"DRIVING"},{"distance":{"text":"7.4 km","value":7353},"duration":{"text":"8 mins","value":504},"end_location":{"lat":-37.8935967,"lng":144.6325624},"html_instructions":"Turn <b>left</b> onto <b>Ballan Rd</b>/<wbr/><b>C703</b>","maneuver":"turn-left","polyline":{"points":"~y~eFamlqZxR_\\pCuEfDwFVa@Va@l@eAVa@Va@Tc@b@q@b@s@hAoB@A`AgBbAcBdAgB\\o@\\i@Tc@n@cAl@eArBmDZg@l@cAn@eAl@cAVc@Va@P[rAyBl@eAR[BEVa@n@eATa@fAgBf@{@fAiBdAiBpBiDXg@HMHQRe@l@wALa@Zw@b@{@LYBG@CBE`A_BT]p@iAR[Xg@j@}@R]l@iA@ARa@l@gAr@kAn@cAl@eAn@cAl@eAn@cAVc@h@}@BEfAeB`@m@dBwC`BoClAoBb@u@Vc@dAmBbFcJd@}@DO@A@C@CDEJMNUp@u@j@o@~@gAh@i@j@g@HG?ABAXWZ[nCiCJK^]x@u@@AbBcBHGvAmAt@s@HEpDkDvGiGbA}@HOb@_@`@]NOHKDENQ?A?A?A?A@A?A?A@A?A@??A@A?A@??A@?@??A@?@A@?@?@?@?@?@?@@d@a@TURQf@k@FIBCBEFGHGJIVOBCBEJMLS@??A?A?A?A?A@A?A?A@??A@??A?A@??A@?@A@A@?@?@A@?@?@?@@@?@?X]PMRUNI|@y@t@s@xDoDlI}HVWn@k@LKh@i@`@]lAgA`HqGv@u@DGHMHMLU?A?A?A?A?A@??A?A?A?A@A?A@A@A?A@?@A@?@?@A@?@??@@?@?TQFENEJAd@_@h@g@HIdG}FDCDGNMj@a@JGPMVMvAu@PKp@]`FuCtF{Cb@SpBiA|A{@JMj@]BCNKRQJKDE?A?A@A?A?A@A?A?A@A?A@A@A@??A@??A@?@?@A@?@?@?@?@?@?@??@@?@??@VQRG@ABA@?BA@ABA@ABADEDEFE@C@ADGDGBGDGNU\\u@DGDG?AFMZq@Re@Vm@t@gBPg@BGN]FOd@kATi@"},"start_location":{"lat":-37.846243,"lng":144.5756892},"travel_mode":"DRIVING"},{"distance":{"text":"0.3 km","value":288},"duration":{"text":"1 min","value":43},"end_location":{"lat":-37.8913674,"lng":144.6335537},"html_instructions":"Turn <b>left</b> onto <b>Buckingham Dr</b>","maneuver":"turn-left","polyline":{"points":"~ahfFopwqZe@[QMKGKEOGQCOAQ@I?KBqATQ@S?SAQEOGSKECCCGGKMY_@IQEMEQCQ"},"start_location":{"lat":-37.8935967,"lng":144.6325624},"travel_mode":"DRIVING"},{"distance":{"text":"34 m","value":34},"duration":{"text":"1 min","value":7},"end_location":{"lat":-37.89107449999999,"lng":144.6334575},"html_instructions":"Turn <b>left</b> onto <b>Kent Ct</b>","maneuver":"turn-left","polyline":{"points":"`tgfFuvwqZ{@P"},"start_location":{"lat":-37.8913674,"lng":144.6335537},"travel_mode":"DRIVING"}],"traffic_speed_entry":[],"via_waypoint":[]},{"distance":{"text":"3.0 km","value":3008},"duration":{"text":"5 mins","value":309},"end_address":"9 Bunyip Ct, Werribee VIC 3030, Australia","end_location":{"lat":-37.8826915,"lng":144.6536099},"start_address":"1 Kent Ct, Werribee VIC 3030, Australia","start_location":{"lat":-37.89107449999999,"lng":144.6334575},"steps":[{"distance":{"text":"34 m","value":34},"duration":{"text":"1 min","value":4},"end_location":{"lat":-37.8913674,"lng":144.6335537},"html_instructions":"Head <b>south</b> on <b>Kent Ct</b> towards <b>Buckingham Dr</b>","polyline":{"points":"drgfFcvwqZz@Q"},"start_location":{"lat":-37.89107449999999,"lng":144.6334575},"travel_mode":"DRIVING"},{"distance":{"text":"0.1 km","value":107},"duration":{"text":"1 min","value":21},"end_location":{"lat":-37.89098860000001,"lng":144.6346396},"html_instructions":"Turn <b>left</b> onto <b>Buckingham Dr</b>","maneuver":"turn-left","polyline":{"points":"`tgfFuvwqZAQAa@CUEWEYEOEKKUEIIMOS"},"start_location":{"lat":-37.8913674,"lng":144.6335537},"travel_mode":"DRIVING"},{"distance":{"text":"0.4 km","value":432},"duration":{"text":"1 min","value":59},"end_location":{"lat":-37.8881452,"lng":144.6357154},"html_instructions":"Turn <b>left</b> onto <b>Queensbury Way</b>","maneuver":"turn-left","polyline":{"points":"tqgfFo}wqZ{AnBQRIJMJKFKFOHODOBM@O@Q?OAQCOEGCGCMIQMOMMQMSkD{H"},"start_location":{"lat":-37.89098860000001,"lng":144.6346396},"travel_mode":"DRIVING"},{"distance":{"text":"0.1 km","value":143},"duration":{"text":"1 min","value":23},"end_location":{"lat":-37.8870242,"lng":144.6349786},"html_instructions":"Turn <b>left</b> onto <b>Rowes Rd</b>","maneuver":"turn-left","polyline":{"points":"|_gfFgdxqZmAbAi@\\CJSDYHI@KBSJMB"},"start_location":{"lat":-37.8881452,"lng":144.6357154},"travel_mode":"DRIVING"},{"distance":{"text":"0.8 km","value":826},"duration":{"text":"1 min","value":66},"end_location":{"lat":-37.8873982,"lng":144.6438745},"html_instructions":"At the roundabout, take the <b>3rd</b> exit onto <b>Heaths Rd</b>/<wbr/><b>C701</b><div style=\"font-size:0.9em\">Go through 1 roundabout</div>","maneuver":"roundabout-left","polyline":{"points":"zxffFs_xqZ?@A@?@A@A@A??@A?A@A??@A?A?A?A?A?A?A?AAA?A??AAAA??AA??AAAAA?AAA?A?AAA?A?A?A?A?A?A?A?A?A?A@A?A@A?A@A?A@A?S@IBM?GHo@H{AHwAFsAFcAJ_BHyAFmAFmAFkADa@BW@K@QBW@k@?AAA?AAAAA?A?A?AAA?A?A?A?C?A?A@A?A?A?A@??A?A@A@A@AAO@MDYHi@Hw@B]@]@Y?GBG?E?IC}AAsAAQ?MC]?AEeAAYEQGa@CGCI"},"start_location":{"lat":-37.8870242,"lng":144.6349786},"travel_mode":"DRIVING"},{"distance":{"text":"0.8 km","value":846},"duration":{"text":"1 min","value":59},"end_location":{"lat":-37.881173,"lng":144.6493736},"html_instructions":"At the roundabout, take the <b>1st</b> exit and stay on <b>Heaths Rd</b>/<wbr/><b>C701</b>","maneuver":"roundabout-left","polyline":{"points":"f{ffFewyqZAAAAA?AAAAACAAAA?AAC?A?CQSMMW[AA_A{@gLkJy@q@u@m@yAkAwBiByAeAmBcB{AqAQSIKEEEECAICMC"},"start_location":{"lat":-37.8873982,"lng":144.6438745},"travel_mode":"DRIVING"},{"distance":{"text":"0.3 km","value":327},"duration":{"text":"1 min","value":36},"end_location":{"lat":-37.8817064,"lng":144.6526794},"html_instructions":"At the roundabout, take the <b>2nd</b> exit onto <b>Purchas St</b>","maneuver":"roundabout-left","polyline":{"points":"htefFqyzqZA?A?A?A?AAA?A??AA?AAAAA??AAAAA?A?AAA?AAA?A?A?A?A?A?A?A?A?A@A?A?A?A@A?A@??A@A?A@?@A@A@??A@?@?@A@?@?@?@?LMDI@CDIFSd@sI?C?A?CAGCGFI@C?C@CJoB?G@E?C@C@C@CBABC"},"start_location":{"lat":-37.881173,"lng":144.6493736},"travel_mode":"DRIVING"},{"distance":{"text":"0.1 km","value":144},"duration":{"text":"1 min","value":17},"end_location":{"lat":-37.88298229999999,"lng":144.652506},"html_instructions":"Turn <b>right</b> onto <b>Parramatta Rd</b>","maneuver":"turn-right","polyline":{"points":"twefFgn{qZ@ABA@AB?@?|BTpBP"},"start_location":{"lat":-37.8817064,"lng":144.6526794},"travel_mode":"DRIVING"},{"distance":{"text":"0.1 km","value":109},"duration":{"text":"1 min","value":14},"end_location":{"lat":-37.8830339,"lng":144.6537325},"html_instructions":"Turn <b>left</b> onto <b>Yarra St</b>","maneuver":"turn-left","polyline":{"points":"r_ffFem{qZNqC@S?I?IAUASCO"},"start_location":{"lat":-37.88298229999999,"lng":144.652506},"travel_mode":"DRIVING"},{"distance":{"text":"40 m","value":40},"duration":{"text":"1 min","value":10},"end_location":{"lat":-37.8826915,"lng":144.6536099},"html_instructions":"Turn <b>left</b> onto <b>Bunyip Ct</b>","maneuver":"turn-left","polyline":{"points":"|_ffFyt{qZcAV"},"start_location":{"lat":-37.8830339,"lng":144.6537325},"travel_mode":"DRIVING"}],"traffic_speed_entry":[],"via_waypoint":[]},{"distance":{"text":"2.8 km","value":2757},"duration":{"text":"5 mins","value":314},"end_address":"279 Shaws Rd, Werribee VIC 3030, Australia","end_location":{"lat":-37.8913282,"lng":144.6739157},"start_address":"9 Bunyip Ct, Werribee VIC 3030, Australia","start_location":{"lat":-37.8826915,"lng":144.6536099},"steps":[{"distance":{"text":"40 m","value":40},"duration":{"text":"1 min","value":7},"end_location":{"lat":-37.8830339,"lng":144.6537325},"html_instructions":"Head <b>south</b> on <b>Bunyip Ct</b> towards <b>Yarra St</b>","polyline":{"points":"x}efFat{qZbAW"},"start_location":{"lat":-37.8826915,"lng":144.6536099},"travel_mode":"DRIVING"},{"distance":{"text":"0.1 km","value":109},"duration":{"text":"1 min","value":21},"end_location":{"lat":-37.88298229999999,"lng":144.652506},"html_instructions":"Turn <b>right</b> onto <b>Yarra St</b>","maneuver":"turn-right","polyline":{"points":"|_ffFyt{qZBN@R@T?H?HAROpC"},"start_location":{"lat":-37.8830339,"lng":144.6537325},"travel_mode":"DRIVING"},{"distance":{"text":"1.2 km","value":1170},"duration":{"text":"3 mins","value":154},"end_location":{"lat":-37.8866248,"lng":144.6624521},"html_instructions":"Turn <b>left</b> onto <b>Parramatta Rd</b>","maneuver":"turn-left","polyline":{"points":"r_ffFem{qZ`CVB?@?DAFADB@@@@B?D@RBP?R?VCRGRGPKTQJKNSFKVe@l@kAj@iADI~@iBHMNSf@m@JMLQRc@lAaCb@y@DIL]J]F_@F_@Da@@_@@[AYA[AOAICYEYESK]ESCQAECMCYC[AW?A?U?Y?A@QJsB@Y?OASCQCQCOEKSo@Wy@EKCMCQCOAO?OAO@Q?KJaBF}@@Y"},"start_location":{"lat":-37.88298229999999,"lng":144.652506},"travel_mode":"DRIVING"},{"distance":{"text":"0.4 km","value":382},"duration":{"text":"1 min","value":34},"end_location":{"lat":-37.8899241,"lng":144.6620382},"html_instructions":"Turn <b>right</b> onto <b>Tarneit Rd</b>","maneuver":"turn-right","polyline":{"points":"jvffFik}qZB[v@J@?PBpAJVBj@DdCRp@HXB`@Dx@HH@B@D@JBVFNBD@B?D?F?RAB?F?"},"start_location":{"lat":-37.8866248,"lng":144.6624521},"travel_mode":"DRIVING"},{"distance":{"text":"1.1 km","value":1056},"duration":{"text":"2 mins","value":98},"end_location":{"lat":-37.8913282,"lng":144.6739157},"html_instructions":"At the roundabout, take the <b>1st</b> exit onto <b>Shaws Rd</b>","maneuver":"roundabout-left","polyline":{"points":"~jgfFwh}qZ@??A@A@A@??A@?PkAFi@@KPuDB_@Bk@@GFgAFiADcA@EFqAHcBB[H{ADk@TiETiEdA{RXqFL{B"},"start_location":{"lat":-37.8899241,"lng":144.6620382},"travel_mode":"DRIVING"}],"traffic_speed_entry":[],"via_waypoint":[]},{"distance":{"text":"2.4 km","value":2352},"duration":{"text":"4 mins","value":246},"end_address":"67 Bernhardt Ave, Hoppers Crossing VIC 3029, Australia","end_location":{"lat":-37.8857398,"lng":144.6906649},"start_address":"279 Shaws Rd, Werribee VIC 3030, Australia","start_location":{"lat":-37.8913282,"lng":144.6739157},"steps":[{"distance":{"text":"8 m","value":8},"duration":{"text":"1 min","value":1},"end_location":{"lat":-37.8913381,"lng":144.6740039},"html_instructions":"Head <b>east</b> on <b>Shaws Rd</b> towards <b>Cemetery Rd</b>","polyline":{"points":"xsgfF_s_rZ@O"},"start_location":{"lat":-37.8913282,"lng":144.6739157},"travel_mode":"DRIVING"},{"distance":{"text":"0.3 km","value":283},"duration":{"text":"1 min","value":27},"end_location":{"lat":-37.8888206,"lng":144.6745095},"html_instructions":"Turn <b>left</b> onto <b>Kookaburra Ave</b>","maneuver":"turn-left","polyline":{"points":"zsgfFos_rZ{BUMAoAQqAOcAOgC["},"start_location":{"lat":-37.8913381,"lng":144.6740039},"travel_mode":"DRIVING"},{"distance":{"text":"0.6 km","value":566},"duration":{"text":"1 min","value":65},"end_location":{"lat":-37.8890311,"lng":144.6809055},"html_instructions":"Turn <b>right</b> onto <b>Parrakeet Rd</b>","maneuver":"turn-right","polyline":{"points":"bdgfFuv_rZH{@TiCDe@B[B]?_@@c@Aa@A]Cm@GgCAU?ACk@?AAk@?AMsDAa@?A?C?i@Bg@Bo@LsBDk@Dm@"},"start_location":{"lat":-37.8888206,"lng":144.6745095},"travel_mode":"DRIVING"},{"distance":{"text":"0.3 km","value":272},"duration":{"text":"1 min","value":22},"end_location":{"lat":-37.8866044,"lng":144.6813147},"html_instructions":"Turn <b>left</b> onto <b>Derrimut Rd</b>/<wbr/><b>C702</b>","maneuver":"turn-left","polyline":{"points":"legfFu~`rZ]CgFe@[C]C_@EqAOWC[C"},"start_location":{"lat":-37.8890311,"lng":144.6809055},"travel_mode":"DRIVING"},{"distance":{"text":"0.8 km","value":845},"duration":{"text":"1 min","value":82},"end_location":{"lat":-37.88393,"lng":144.6887748},"html_instructions":"Turn <b>right</b> onto <b>Willmott Dr</b>","maneuver":"turn-right","polyline":{"points":"fvffFeaarZBYD}@LaCBc@?Q@eG@}C@kE?cBC]CYCSCMI[K[MYMQMQOOGEKIOIeAs@m@a@aC{AOKUKUKSGUGWGWCQCU?"},"start_location":{"lat":-37.8866044,"lng":144.6813147},"travel_mode":"DRIVING"},{"distance":{"text":"0.1 km","value":139},"duration":{"text":"1 min","value":18},"end_location":{"lat":-37.8840491,"lng":144.6903444},"html_instructions":"Turn <b>right</b> onto <b>Warringa Cres</b>","maneuver":"turn-right","polyline":{"points":"peffFyobrZLkC?KB[FyA@KAK?IAI"},"start_location":{"lat":-37.88393,"lng":144.6887748},"travel_mode":"DRIVING"},{"distance":{"text":"0.2 km","value":175},"duration":{"text":"1 min","value":20},"end_location":{"lat":-37.8854192,"lng":144.6912743},"html_instructions":"Turn <b>right</b> onto <b>Powell Dr</b>","maneuver":"turn-right","polyline":{"points":"hfffFsybrZdAYD?LGLGLI|AqA|@s@"},"start_location":{"lat":-37.8840491,"lng":144.6903444},"travel_mode":"DRIVING"},{"distance":{"text":"64 m","value":64},"duration":{"text":"1 min","value":11},"end_location":{"lat":-37.8857398,"lng":144.6906649},"html_instructions":"Turn <b>right</b> onto <b>Bernhardt Ave</b>","maneuver":"turn-right","polyline":{"points":"znffFm_crZr@~AFNBH"},"start_location":{"lat":-37.8854192,"lng":144.6912743},"travel_mode":"DRIVING"}],"traffic_speed_entry":[],"via_waypoint":[]},{"distance":{"text":"2.5 km","value":2471},"duration":{"text":"6 mins","value":350},"end_address":"31 Hotham Cres, Hoppers Crossing VIC 3029, Australia","end_location":{"lat":-37.8757372,"lng":144.7060389},"start_address":"67 Bernhardt Ave, Hoppers Crossing VIC 3029, Australia","start_location":{"lat":-37.8857398,"lng":144.6906649},"steps":[{"distance":{"text":"64 m","value":64},"duration":{"text":"1 min","value":14},"end_location":{"lat":-37.8854192,"lng":144.6912743},"html_instructions":"Head <b>north-east</b> on <b>Bernhardt Ave</b> towards <b>Powell Dr</b>","polyline":{"points":"zpffFs{brZCIGOs@_B"},"start_location":{"lat":-37.8857398,"lng":144.6906649},"travel_mode":"DRIVING"},{"distance":{"text":"0.9 km","value":932},"duration":{"text":"2 mins","value":120},"end_location":{"lat":-37.8818492,"lng":144.699433},"html_instructions":"Turn <b>right</b> onto <b>Powell Dr</b>","maneuver":"turn-right","polyline":{"points":"znffFm_crZvAmAJKFMFSBI?I@I?G?KAIAKCIi@gBiEoNeAmDiDgLIWCEEGCCKGg@UgCmAcCmA"},"start_location":{"lat":-37.8854192,"lng":144.6912743},"travel_mode":"DRIVING"},{"distance":{"text":"0.1 km","value":115},"duration":{"text":"1 min","value":28},"end_location":{"lat":-37.8823637,"lng":144.7005581},"html_instructions":"Turn <b>right</b> onto <b>Civic Centre</b>","maneuver":"turn-right","polyline":{"points":"pxefFmrdrZZoA@Eh@aADMHWLc@"},"start_location":{"lat":-37.8818492,"lng":144.699433},"travel_mode":"DRIVING"},{"distance":{"text":"73 m","value":73},"duration":{"text":"1 min","value":18},"end_location":{"lat":-37.8817681,"lng":144.7008898},"html_instructions":"Turn <b>left</b> onto <b>Old Geelong Rd</b>","maneuver":"turn-left","polyline":{"points":"v{efFoydrZgA[CAYQAAMO"},"start_location":{"lat":-37.8823637,"lng":144.7005581},"travel_mode":"DRIVING"},{"distance":{"text":"0.8 km","value":829},"duration":{"text":"2 mins","value":106},"end_location":{"lat":-37.874401,"lng":144.7021128},"html_instructions":"At the roundabout, take the <b>1st</b> exit onto <b>Morris Rd</b>","maneuver":"roundabout-left","polyline":{"points":"`xefFq{drZA?A?AAA?AAAAA?W@a@?UAYCSK_AE_@Cs@GOA]C{@Ko@IKD[Ea@Gu@G{@Ko@ImC[e@Ey@EsAOuBQq@Kc@GcAKiAK_CS"},"start_location":{"lat":-37.8817681,"lng":144.7008898},"travel_mode":"DRIVING"},{"distance":{"text":"0.2 km","value":150},"duration":{"text":"1 min","value":22},"end_location":{"lat":-37.8745876,"lng":144.7038062},"html_instructions":"Turn <b>right</b> onto <b>Bellbridge Dr</b>","maneuver":"turn-right","polyline":{"points":"~idfFecerZBYH}ABi@Dy@LwB"},"start_location":{"lat":-37.874401,"lng":144.7021128},"travel_mode":"DRIVING"},{"distance":{"text":"0.3 km","value":308},"duration":{"text":"1 min","value":42},"end_location":{"lat":-37.8757372,"lng":144.7060389},"html_instructions":"Turn <b>right</b> onto <b>Hotham Cres</b>","maneuver":"turn-right","polyline":{"points":"dkdfFymerZlCVLBF?DA@?BCBC@G@Sf@oJBu@@M"},"start_location":{"lat":-37.8745876,"lng":144.7038062},"travel_mode":"DRIVING"}],"traffic_speed_entry":[],"via_waypoint":[]},{"distance":{"text":"0.2 km","value":206},"duration":{"text":"1 min","value":38},"end_address":"4 Gildan Ct, Hoppers Crossing VIC 3029, Australia","end_location":{"lat":-37.876149,"lng":144.7077434},"start_address":"31 Hotham Cres, Hoppers Crossing VIC 3029, Australia","start_location":{"lat":-37.8757372,"lng":144.7060389},"steps":[{"distance":{"text":"0.1 km","value":147},"duration":{"text":"1 min","value":19},"end_location":{"lat":-37.8756374,"lng":144.7076925},"html_instructions":"Head <b>east</b> on <b>Hotham Cres</b> towards <b>Gildan Ct</b>","polyline":{"points":"jrdfFw{erZD}D?QAOAOUyA"},"start_location":{"lat":-37.8757372,"lng":144.7060389},"travel_mode":"DRIVING"},{"distance":{"text":"59 m","value":59},"duration":{"text":"1 min","value":19},"end_location":{"lat":-37.876149,"lng":144.7077434},"html_instructions":"Turn <b>right</b> onto <b>Gildan Ct</b>","maneuver":"turn-right","polyline":{"points":"vqdfFaffrZj@QJAFAF@H?FBJB?@"},"start_location":{"lat":-37.8756374,"lng":144.7076925},"travel_mode":"DRIVING"}],"traffic_speed_entry":[],"via_waypoint":[]},{"distance":{"text":"1.9 km","value":1924},"duration":{"text":"3 mins","value":207},"end_address":"7 Hogans Rd, Hoppers Crossing VIC 3029, Australia","end_location":{"lat":-37.8646846,"lng":144.7012639},"start_address":"4 Gildan Ct, Hoppers Crossing VIC 3029, Australia","start_location":{"lat":-37.876149,"lng":144.7077434},"steps":[{"distance":{"text":"59 m","value":59},"duration":{"text":"1 min","value":12},"end_location":{"lat":-37.8756374,"lng":144.7076925},"html_instructions":"Head <b>north</b> on <b>Gildan Ct</b> towards <b>Hotham Cres</b>","polyline":{"points":"|tdfFkffrZ?AKCGCI?GAG@K@k@P"},"start_location":{"lat":-37.876149,"lng":144.7077434},"travel_mode":"DRIVING"},{"distance":{"text":"0.5 km","value":455},"duration":{"text":"1 min","value":68},"end_location":{"lat":-37.8745876,"lng":144.7038062},"html_instructions":"Turn <b>left</b> onto <b>Hotham Cres</b>","maneuver":"turn-left","polyline":{"points":"vqdfFaffrZTxA@N@N?PGjECt@g@nJARAFCBCBA?E@G?MCmCW"},"start_location":{"lat":-37.8756374,"lng":144.7076925},"travel_mode":"DRIVING"},{"distance":{"text":"0.1 km","value":139},"duration":{"text":"1 min","value":24},"end_location":{"lat":-37.87441870000001,"lng":144.7022378},"html_instructions":"Turn <b>left</b> onto <b>Bellbridge Dr</b>","maneuver":"turn-left","polyline":{"points":"dkdfFymerZMvBEx@Ch@I|A"},"start_location":{"lat":-37.8745876,"lng":144.7038062},"travel_mode":"DRIVING"},{"distance":{"text":"1.0 km","value":1025},"duration":{"text":"1 min","value":81},"end_location":{"lat":-37.8653603,"lng":144.7036324},"html_instructions":"Turn <b>right</b> onto <b>Morris Rd</b>","maneuver":"turn-right","polyline":{"points":"bjdfF_derZCXmFi@m@IUCeAG}AO_AI_Iu@qAOo@IkBQgAKwAMcMiAq@Gu@G"},"start_location":{"lat":-37.87441870000001,"lng":144.7022378},"travel_mode":"DRIVING"},{"distance":{"text":"0.2 km","value":246},"duration":{"text":"1 min","value":22},"end_location":{"lat":-37.8646846,"lng":144.7012639},"html_instructions":"Turn <b>left</b> onto <b>Hogans Rd</b>","maneuver":"turn-left","polyline":{"points":"nqbfFulerZa@FUDG@GDQLQtD[~F"},"start_location":{"lat":-37.8653603,"lng":144.7036324},"travel_mode":"DRIVING"}],"traffic_speed_entry":[],"via_waypoint":[]},{"distance":{"text":"2.0 km","value":2001},"duration":{"text":"3 mins","value":178},"end_address":"34 Bourke Cres, Hoppers Crossing VIC 3029, Australia","end_location":{"lat":-37.8702022,"lng":144.6872485},"start_address":"7 Hogans Rd, Hoppers Crossing VIC 3029, Australia","start_location":{"lat":-37.8646846,"lng":144.7012639},"steps":[{"distance":{"text":"0.9 km","value":891},"duration":{"text":"1 min","value":57},"end_location":{"lat":-37.8635887,"lng":144.6912064},"html_instructions":"Head <b>west</b> on <b>Hogans Rd</b> towards <b>Evrah Dr</b>","polyline":{"points":"fmbfF{}drZm@jLMbCYbFGfASdEEl@QzCOdDC^MfCMpBGfAKjBKxB"},"start_location":{"lat":-37.8646846,"lng":144.7012639},"travel_mode":"DRIVING"},{"distance":{"text":"0.7 km","value":744},"duration":{"text":"1 min","value":66},"end_location":{"lat":-37.8700793,"lng":144.6912759},"html_instructions":"Turn <b>left</b> onto <b>Mossfiel Dr</b><div style=\"font-size:0.9em\">Go through 1 roundabout</div>","maneuver":"turn-left","polyline":{"points":"lfbfFa_crZfCVr@FdAJb@FnCV`Hp@d@DhBPZBR@BAH?T?B??A@A?A@??A@??A@?@??A@?@?@?@?@?@??@@?@@@??@@@FCLCTEPG`@OPI`@S`@S|BkA"},"start_location":{"lat":-37.8635887,"lng":144.6912064},"travel_mode":"DRIVING"},{"distance":{"text":"0.4 km","value":366},"duration":{"text":"1 min","value":55},"end_location":{"lat":-37.8702022,"lng":144.6872485},"html_instructions":"Turn <b>right</b> onto <b>Bourke Cres</b>","maneuver":"turn-right","polyline":{"points":"~ncfFo_crZFTbAvDBH@J@H?H?NCX]zGYfF"},"start_location":{"lat":-37.8700793,"lng":144.6912759},"travel_mode":"DRIVING"}],"traffic_speed_entry":[],"via_waypoint":[]}],"overview_polyline":{"points":"nzjfFgnytZ[bYw@fAyCdHcQkBo[aDuUmBuJMgBnG{Exh@}Jhb@oRfj@yL~uAeQli@i]vx@h@fp@uMr\\}l@d\\oq@pQa`@|NmNn_@sNzZoC~RuQfWa`@jC}MrPmA|TRd]c[n[oH`MeGxf@rDn^o@rZvK|YbEj]uK~`@w]h]{I~|@u@bYjHp]~Krw@{Jpy@cDffAnQh~AzXpp@|Ev_@_Jre@}`@hz@mGfb@Xdf@sE|qBxFp|ErBlc@fE~ZyMhZ{g@tVyQxGw@fRDbBmJ|}BsEvxA_AtLR`DjX~BtBW~OlB`WbBfR`Ag@rLkGhbB{Dj`AvCwu@V_U|D_CtHh@t`@hCvKl@v[pB~^~Cde@xA`QuExQqEvR}AjL@vBtF`ElQjL~]Zl@zBpH|F|NnF}ApQgFrK_DhYj@jHhE\\h@nHzFpBsE|DEjBRTbMzFXl@mEwBkFpCjFBpFpP|A|Em@xGLl@b@zDsLBMTCHTzIpGmBeCxG{@Zd@hPpALQPF@JvBTEvQcCn`@uBfc@s@`]vMpWhEdU`F~P`i@||@`mAraFlg@|sBlQlQoIpGsHhLuCjIkCkCgZeTuVqQXaMvCwHCOBOXClEkMvBaQT?jL~AlZjCs@cGwN{_@p@_F|FeDlGeEmHzEoFfDL`ItNv^PpAuJb@s[qC_@FmBfNGhAwElMUNEAuGtP|@dD~F`Gm@hGrGdHg@~IfG~@_AjOcCpb@aAbP_DnC_KgAmGwRwDjAINoBp@wDlLbMb_@kP`]sCxd@cVsA}KwAmYxFmHS}BpJyBv_@~LhAxJ`ATDtJxA?bJ?cJyJs@K@_Aa@kVuBvBcf@a@}EiFe@gMmAwd@kDyp@kH}ZiAcAjHgDlEyEi@aJy@b@sKuCfAPvC_Dni@gH|P[LsOp_@kB`PQjFdIqClH~BjCk@aDDyHkAaHfBf@aKeOwHwFwBaEdHnDiGAeEiCqC_HyH}BgB_GfKuSn]cVpa@aa@zp@_i@ws@xFtHda@`j@j]ok@|GeLhUg`@fa@ys@nj@a_Adk@ki@lgAsaA~\\eSfFaLR}EwDF}FiCZiDqDxAiFQuG}G{Ax@y@XSJUMf@cIhAuVTeSqe@ub@EiBfAcPTWtFf@PyDzBnExEeAtLsTGwK}@gYzSjAfB{XjDuo@kHy@kDqFFqG]oLR}GeLaDk@ab@eMiJ}@}GdBuA|Eo@dAyFaIyX}J}PeBkIs@g@iHg@c[}CiGeA`@yHrDPvBiXkA|K{@tKqDzAWzEg\\_Di[gCqGj_Am@~KdHr@~RdB`@Ij@AdHeCh@fPYfF"},"summary":"M1","warnings":[],"waypoint_order":[0,1,2,3,4,5,6,7,8,9,10,11,12,13,14,15,16,17,18,19,20,21,22]}],"status":"OK"},{"geocoded_waypoints":[{"geocoder_status":"OK","place_id":"ChIJixsNYkiP1moRfA8gIoBXS9Y","types":["street_address"]},{"geocoder_status":"OK","place_id":"ChIJk4pRxz-P1moRCRNMAFYtfFU","types":["street_address"]},{"geocoder_status":"OK","place_id":"ChIJhyn-7w-P1moRM8iLkJm_azk","types":["street_address"]},{"geocoder_status":"OK","place_id":"ChIJc7_ckgWP1moRc-HsXs9_Y2o","types":["street_address"]},{"geocoder_status":"OK","place_id":"ChIJIdELudyP1moRpFj_99qMrjE","types":["route"]},{"geocoder_status":"OK","place_id":"ChIJT_y1nrmP1moRRMB0M8Fhrbg","types":["route"]},{"geocoder_status":"OK","place_id":"ChIJ50Qfj_yO1moRgTp2macWNRI","types":["street_address"]},{"geocoder_status":"OK","place_id":"ChIJgdtfpVaJ1moRmycpfo__sfI","types":["street_address"]},{"geocoder_status":"OK","place_id":"Ei8zMjQgSG9sZGVuIFJkLCBEaWdnZXJzIFJlc3QgVklDIDM0MjcsIEF1c3RyYWxpYSIbEhkKFAoSCTd3tB2U9tZqERLD72D9Px3iEMQC","types":["street_address"]},{"geocoder_status":"OK","place_id":"Ei8zMjQgSG9sZGVuIFJkLCBEaWdnZXJzIFJlc3QgVklDIDM0MjcsIEF1c3RyYWxpYSIbEhkKFAoSCTd3tB2U9tZqERLD72D9Px3iEMQC","types":["street_address"]},{"geocoder_status":"OK","place_id":"ChIJA44pZU_J2WoR2m9twQZhOsU","types":["route"]},{"geocoder_status":"OK","place_id":"ChIJgXDTibVq1moRr1lPTnO_f9Q","types":["establishment","point_of_interest","transit_station"]}],"routes":[{"bounds":{"northeast":{"lat":-36.5983638,"lng":145.1383123},"southwest":{"lat":-37.9081384,"lng":144.4642715}},"copyrights":"Map data Â©2020","legs":[{"distance":{"text":"2.0 km","value":1975},"duration":{"text":"3 mins","value":200},"end_address":"2 Connor Pl, Hoppers Crossing VIC 3029, Australia","end_location":{"lat":-37.8627392,"lng":144.6765338},"start_address":"34 Bourke Cres, Hoppers Crossing VIC 3029, Australia","start_location":{"lat":-37.8702022,"lng":144.6872485},"steps":[{"distance":{"text":"0.3 km","value":311},"duration":{"text":"1 min","value":47},"end_location":{"lat":-37.8684204,"lng":144.6856007},"html_instructions":"Head <b>west</b> on <b>Bourke Cres</b> towards <b>Elliot Ct</b>","polyline":{"points":"vocfFifbrZUfEAJANENCJCJGJEJGJGFIHKHKHOFMDO@O@M?OA_D["},"start_location":{"lat":-37.8702022,"lng":144.6872485},"travel_mode":"DRIVING"},{"distance":{"text":"0.1 km","value":95},"duration":{"text":"1 min","value":16},"end_location":{"lat":-37.8683078,"lng":144.6845278},"html_instructions":"Turn <b>left</b> onto <b>Cameron Dr</b>","maneuver":"turn-left","polyline":{"points":"rdcfF_|arZQnDAHAZ"},"start_location":{"lat":-37.8684204,"lng":144.6856007},"travel_mode":"DRIVING"},{"distance":{"text":"0.6 km","value":603},"duration":{"text":"1 min","value":54},"end_location":{"lat":-37.8630562,"lng":144.6852866},"html_instructions":"Turn <b>right</b> onto <b>Derrimut Rd</b>/<wbr/><b>C702</b>","maneuver":"turn-right","polyline":{"points":"|ccfFiuarZE^_BQy@KcAMcAKQAe@GgBScAMiBSMAc@Eu@I[Eu@Ok@IIAe@KWCq@GC?E?O@G?C?A@OBKB"},"start_location":{"lat":-37.8683078,"lng":144.6845278},"travel_mode":"DRIVING"},{"distance":{"text":"0.8 km","value":822},"duration":{"text":"1 min","value":61},"end_location":{"lat":-37.8619205,"lng":144.6760612},"html_instructions":"At the roundabout, take the <b>1st</b> exit onto <b>Hogans Rd</b>","maneuver":"roundabout-left","polyline":{"points":"bcbfFazarZA??BC@ABCBMp@E\\AHALKvBKbBQhCC`@o@rLOjC}@jPIjBI~A"},"start_location":{"lat":-37.8630562,"lng":144.6852866},"travel_mode":"DRIVING"},{"distance":{"text":"0.1 km","value":96},"duration":{"text":"1 min","value":10},"end_location":{"lat":-37.8627768,"lng":144.67599},"html_instructions":"Turn <b>left</b> onto <b>Dowling Ave</b>","maneuver":"turn-left","polyline":{"points":"~{afFk``rZ~@Hb@DN@N?J?LALA"},"start_location":{"lat":-37.8619205,"lng":144.6760612},"travel_mode":"DRIVING"},{"distance":{"text":"48 m","value":48},"duration":{"text":"1 min","value":12},"end_location":{"lat":-37.8627392,"lng":144.6765338},"html_instructions":"Turn <b>left</b> onto <b>Connor Pl</b>","maneuver":"turn-left","polyline":{"points":"jabfF}_`rZG_AAM?K@K?E"},"start_location":{"lat":-37.8627768,"lng":144.67599},"travel_mode":"DRIVING"}],"traffic_speed_entry":[],"via_waypoint":[]},{"distance":{"text":"2.5 km","value":2480},"duration":{"text":"5 mins","value":271},"end_address":"55 Chlorinda Rd, Tarneit VIC 3029, Australia","end_location":{"lat":-37.8508106,"lng":144.6634336},"start_address":"2 Connor Pl, Hoppers Crossing VIC 3029, Australia","start_location":{"lat":-37.8627392,"lng":144.6765338},"steps":[{"distance":{"text":"48 m","value":48},"duration":{"text":"1 min","value":5},"end_location":{"lat":-37.8627768,"lng":144.67599},"html_instructions":"Head <b>west</b> on <b>Connor Pl</b> towards <b>Dowling Ave</b>","polyline":{"points":"babfFic`rZ?DAJ?J@LF~@"},"start_location":{"lat":-37.8627392,"lng":144.6765338},"travel_mode":"DRIVING"},{"distance":{"text":"0.1 km","value":96},"duration":{"text":"1 min","value":29},"end_location":{"lat":-37.8619205,"lng":144.6760612},"html_instructions":"Turn <b>right</b> onto <b>Dowling Ave</b>","maneuver":"turn-right","polyline":{"points":"jabfF}_`rZM@M@K?O?OAc@E_AI"},"start_location":{"lat":-37.8627768,"lng":144.67599},"travel_mode":"DRIVING"},{"distance":{"text":"0.8 km","value":800},"duration":{"text":"1 min","value":73},"end_location":{"lat":-37.8609075,"lng":144.6670419},"html_instructions":"Turn <b>left</b> at the 1st cross street onto <b>Hogans Rd</b>","maneuver":"turn-left","polyline":{"points":"~{afFk``rZQ|CQxC?HATAPMzBAVs@`MGdAEx@?Fg@fKEn@GhAWpDAN"},"start_location":{"lat":-37.8619205,"lng":144.6760612},"travel_mode":"DRIVING"},{"distance":{"text":"0.9 km","value":936},"duration":{"text":"2 mins","value":94},"end_location":{"lat":-37.8526616,"lng":144.6682942},"html_instructions":"Turn <b>right</b> onto <b>Tarneit Rd</b>","maneuver":"turn-right","polyline":{"points":"tuafF_h~qZE\\SEc@EMAk@GUAE?qBUcBM{DWsCWiAOIAcAIyAO_@Ea@Cm@Es@IAAQAQAa@Cs@I{@Ku@Q[AWCw@Gk@I{C["},"start_location":{"lat":-37.8609075,"lng":144.6670419},"travel_mode":"DRIVING"},{"distance":{"text":"0.5 km","value":454},"duration":{"text":"1 min","value":55},"end_location":{"lat":-37.8521181,"lng":144.663243},"html_instructions":"Turn <b>left</b> onto <b>Bethany Rd</b><div style=\"font-size:0.9em\">Go through 1 roundabout</div>","maneuver":"turn-left","polyline":{"points":"bb`fFyo~qZMvBMfCEr@?NC^AH@??@@??@@??@@@?@?@@??@?@?@?@?@?@?@?@?@A??@?@A@?@A@A@A@A??@A?AFCP?@EFMrCKlCE|@Ex@KdCAF?F?@"},"start_location":{"lat":-37.8526616,"lng":144.6682942},"travel_mode":"DRIVING"},{"distance":{"text":"0.1 km","value":146},"duration":{"text":"1 min","value":15},"end_location":{"lat":-37.8508106,"lng":144.6634336},"html_instructions":"Turn <b>right</b> onto <b>Chlorinda Rd</b>","maneuver":"turn-right","polyline":{"points":"v~_fFgp}qZeGe@"},"start_location":{"lat":-37.8521181,"lng":144.663243},"travel_mode":"DRIVING"}],"traffic_speed_entry":[],"via_waypoint":[]},{"distance":{"text":"3.0 km","value":3010},"duration":{"text":"5 mins","value":311},"end_address":"29 Centurion Ave, Tarneit VIC 3029, Australia","end_location":{"lat":-37.8470213,"lng":144.6410591},"start_address":"55 Chlorinda Rd, Tarneit VIC 3029, Australia","start_location":{"lat":-37.8508106,"lng":144.6634336},"steps":[{"distance":{"text":"0.6 km","value":573},"duration":{"text":"1 min","value":83},"end_location":{"lat":-37.8458497,"lng":144.6643538},"html_instructions":"Head <b>north</b> on <b>Chlorinda Rd</b> towards <b>Evadene Dr</b><div style=\"font-size:0.9em\">Go through 2 roundabouts</div>","polyline":{"points":"pv_fFmq}qZgAKsAKC?oAKy@GEA?@A??@?@?@A??@A@?@A?A??@A?A?A?A??AA?A??AA??AA??A?AAA?A?A?Ae@Ow@YOECAQEKCGAKAKA]Cc@CK@S??@A??@A@?@A??@A?A??@A?A?A?A?A??AA?AAAAAA?A?AA??A?AUEIEqFc@k@GI?IAQA"},"start_location":{"lat":-37.8508106,"lng":144.6634336},"travel_mode":"DRIVING"},{"distance":{"text":"2.0 km","value":2027},"duration":{"text":"2 mins","value":142},"end_location":{"lat":-37.8434466,"lng":144.6415529},"html_instructions":"Turn <b>left</b> onto <b>Sayers Rd</b>","maneuver":"turn-left","polyline":{"points":"pw~eFew}qZE`AEl@KxBEv@Ch@CZCh@]~GAb@AJC^AR?BAV?NYtJEv@E~@C|@SfFCr@AV?^[xKAx@A`@?BCd@SjEAfA?X@@@@@@?@@@?@@@?@?@?@@@?@?@?@?@A@?@?@?@A@?@?@A@?@A??@A??@A@A??@A?KhAEf@QfCkAzQCd@w@|JIfAcAjMOxB"},"start_location":{"lat":-37.8458497,"lng":144.6643538},"travel_mode":"DRIVING"},{"distance":{"text":"0.4 km","value":410},"duration":{"text":"1 min","value":86},"end_location":{"lat":-37.8470213,"lng":144.6410591},"html_instructions":"Turn <b>left</b>","maneuver":"turn-left","polyline":{"points":"ph~eFuhyqZHDFHHJHFDBDBJBLBjAPfALbAHVBJ?LCRCTEJENAR?ZDRDtCVd@DLAHCJEDCBC"},"start_location":{"lat":-37.8434466,"lng":144.6415529},"travel_mode":"DRIVING"}],"traffic_speed_entry":[],"via_waypoint":[]},{"distance":{"text":"2.3 km","value":2320},"duration":{"text":"4 mins","value":230},"end_address":"Sayers Rd, Tarneit VIC 3029, Australia","end_location":{"lat":-37.8408363,"lng":144.6200643},"start_address":"29 Centurion Ave, Tarneit VIC 3029, Australia","start_location":{"lat":-37.8470213,"lng":144.6410591},"steps":[{"distance":{"text":"0.4 km","value":410},"duration":{"text":"1 min","value":82},"end_location":{"lat":-37.8434466,"lng":144.6415529},"html_instructions":"Head <b>north-west</b> towards <b>Sayers Rd</b>","polyline":{"points":"z~~eFseyqZCBEBKDIBM@e@EuCWSE[ES?O@KDUDSBMBK?WCcAIgAMkAQMCKCECECIGIKGIIE"},"start_location":{"lat":-37.8470213,"lng":144.6410591},"travel_mode":"DRIVING"},{"distance":{"text":"1.9 km","value":1910},"duration":{"text":"2 mins","value":148},"end_location":{"lat":-37.8408363,"lng":144.6200643},"html_instructions":"Turn <b>left</b> onto <b>Sayers Rd</b><div style=\"font-size:0.9em\">Destination will be on the right</div>","maneuver":"turn-left","polyline":{"points":"ph~eFuhyqZcAjQoC`b@mAtRaCz_@kBfZD`@"},"start_location":{"lat":-37.8434466,"lng":144.6415529},"travel_mode":"DRIVING"}],"traffic_speed_entry":[],"via_waypoint":[]},{"distance":{"text":"1.5 km","value":1530},"duration":{"text":"2 mins","value":109},"end_address":"1124-1118 Sayers Rd, Tarneit VIC 3029, Australia","end_location":{"lat":-37.8429391,"lng":144.6372686},"start_address":"Sayers Rd, Tarneit VIC 3029, Australia","start_location":{"lat":-37.8408363,"lng":144.6200643},"steps":[{"distance":{"text":"1.5 km","value":1530},"duration":{"text":"2 mins","value":109},"end_location":{"lat":-37.8429391,"lng":144.6372686},"html_instructions":"Head <b>east</b> on <b>Sayers Rd</b> towards <b>Sewells Rd</b><div style=\"font-size:0.9em\">Destination will be on the left</div>","polyline":{"points":"fx}eFkbuqZEa@jBgZ`C{_@lAuRlBuY"},"start_location":{"lat":-37.8408363,"lng":144.6200643},"travel_mode":"DRIVING"}],"traffic_speed_entry":[],"via_waypoint":[]},{"distance":{"text":"3.1 km","value":3051},"duration":{"text":"5 mins","value":317},"end_address":"21 Tallinga St, Tarneit VIC 3029, Australia","end_location":{"lat":-37.8365936,"lng":144.6621751},"start_address":"1124-1118 Sayers Rd, Tarneit VIC 3029, Australia","start_location":{"lat":-37.8429391,"lng":144.6372686},"steps":[{"distance":{"text":"1.2 km","value":1241},"duration":{"text":"2 mins","value":102},"end_location":{"lat":-37.844644,"lng":144.6512184},"html_instructions":"Head <b>east</b> on <b>Sayers Rd</b> towards <b>Ravenshaw chase</b>","polyline":{"points":"je~eF}mxqZ`@kGbAkQNyBbAkMHgAv@}JBe@jA{QPgCIwB"},"start_location":{"lat":-37.8429391,"lng":144.6372686},"travel_mode":"DRIVING"},{"distance":{"text":"0.7 km","value":737},"duration":{"text":"1 min","value":51},"end_location":{"lat":-37.8381145,"lng":144.652549},"html_instructions":"At the roundabout, take the <b>1st</b> exit onto <b>Davis Rd</b>","maneuver":"roundabout-left","polyline":{"points":"~o~eFce{qZ?AA??AAA}@_@gBW_CYgIy@s@GgCOMAmAKoKqA"},"start_location":{"lat":-37.844644,"lng":144.6512184},"travel_mode":"DRIVING"},{"distance":{"text":"0.6 km","value":621},"duration":{"text":"2 mins","value":97},"end_location":{"lat":-37.8385736,"lng":144.6595363},"html_instructions":"Turn <b>right</b> onto <b>Isabella Way</b><div style=\"font-size:0.9em\">Go through 1 roundabout</div>","maneuver":"turn-right","polyline":{"points":"dg}eFmm{qZVyIHkDFyBCK?IAI?AA??AAA?A?AA??A?A?A?A?A?A?A?A?A?A@??A?A@??A@??A@??A@??IBODMH_C@]HuCJqD@UDiC"},"start_location":{"lat":-37.8381145,"lng":144.652549},"travel_mode":"DRIVING"},{"distance":{"text":"0.3 km","value":254},"duration":{"text":"1 min","value":33},"end_location":{"lat":-37.8363512,"lng":144.6599932},"html_instructions":"At the roundabout, take the <b>1st</b> exit onto <b>Felix Way</b>","maneuver":"roundabout-left","polyline":{"points":"`j}eFcy|qZA??AA??AA??A?AA??A?A?A{@O_BScAIeAKmCQ"},"start_location":{"lat":-37.8385736,"lng":144.6595363},"travel_mode":"DRIVING"},{"distance":{"text":"0.2 km","value":194},"duration":{"text":"1 min","value":20},"end_location":{"lat":-37.8365619,"lng":144.662181},"html_instructions":"Turn <b>right</b> onto <b>Elsey Cres</b>","maneuver":"turn-right","polyline":{"points":"d||eF}{|qZPiGJ{AJoA"},"start_location":{"lat":-37.8363512,"lng":144.6599932},"travel_mode":"DRIVING"},{"distance":{"text":"4 m","value":4},"duration":{"text":"1 min","value":14},"end_location":{"lat":-37.8365936,"lng":144.6621751},"html_instructions":"Turn <b>right</b> onto <b>Tallinga St</b>","maneuver":"turn-right","polyline":{"points":"n}|eFsi}qZD?"},"start_location":{"lat":-37.8365619,"lng":144.662181},"travel_mode":"DRIVING"}],"traffic_speed_entry":[],"via_waypoint":[]},{"distance":{"text":"5.6 km","value":5607},"duration":{"text":"8 mins","value":494},"end_address":"26 Wreath Dr, Tarneit VIC 3029, Australia","end_location":{"lat":-37.8209937,"lng":144.7034144},"start_address":"21 Tallinga St, Tarneit VIC 3029, Australia","start_location":{"lat":-37.8365936,"lng":144.6621751},"steps":[{"distance":{"text":"0.1 km","value":109},"duration":{"text":"1 min","value":24},"end_location":{"lat":-37.8356325,"lng":144.6624119},"html_instructions":"Head <b>north</b> on <b>Tallinga St</b> towards <b>Elsey Cres</b>","polyline":{"points":"t}|eFsi}qZE?aBWwAU"},"start_location":{"lat":-37.8365936,"lng":144.6621751},"travel_mode":"DRIVING"},{"distance":{"text":"0.9 km","value":873},"duration":{"text":"2 mins","value":95},"end_location":{"lat":-37.8361206,"lng":144.6721845},"html_instructions":"Turn <b>right</b> onto <b>Hummingbird Boulevard</b><div style=\"font-size:0.9em\">Go through 1 roundabout</div>","maneuver":"turn-right","polyline":{"points":"tw|eFak}qZJoBDc@RuCFiAD_AViFD{@HsABi@DaADu@C]?WA??AA?A??AA??A?AA??AAA?A?A?A?A?A?A?A?A?A@??A?A@A?A@??A@??A@?^oGHiBB]BsA?aAA]AKCe@?KAKAMAKAKAKAMAKAKCUEYSsA"},"start_location":{"lat":-37.8356325,"lng":144.6624119},"travel_mode":"DRIVING"},{"distance":{"text":"2.1 km","value":2073},"duration":{"text":"3 mins","value":150},"end_location":{"lat":-37.8176888,"lng":144.6752072},"html_instructions":"Turn <b>left</b> onto <b>Tarneit Rd</b>","maneuver":"turn-left","polyline":{"points":"vz|eFch_rZWDG?mAJc@?u@K}AYoDg@YESCYEWC_@GWAc@EiAUKCGAQCGAg@I]CsAOwEe@c@EuEe@GAYCQCEAgCUc@Ec@Ec@Ec@EeAKSCc@Ea@EM@A?C?g@Iw@IaBQC?_@C}@KUAOAYC_@Eu@Ia@Ii@EcD[GA[EI?[Ea@Eq@IUCE?[EqAMu@IWAAAA?EEa@CmCWoCWoAMYCOASCiBQi@Ig@BSBKBUF"},"start_location":{"lat":-37.8361206,"lng":144.6721845},"travel_mode":"DRIVING"},{"distance":{"text":"2.6 km","value":2552},"duration":{"text":"4 mins","value":225},"end_location":{"lat":-37.8209937,"lng":144.7034144},"html_instructions":"At the roundabout, take the <b>3rd</b> exit onto <b>Dohertys Rd</b>","maneuver":"roundabout-left","polyline":{"points":"pgyeFa{_rZABA@?@A@?@A?A@?@A?A@A?A?A@A?A?A?A?A?A?A??AA?A?AAAAAAAA?AAAA??A?AAA?A?CAA?C?A?A?A?A?A@A?A?C?A@A@A?A@A@A?A@?@A@A@?@AH[@KJy@`@iGNeCr@aMZaFBm@h@yINyCBg@B]Fm@JaAHeABi@Dm@?CBi@DaAJwB@O@W@SFeANmBBm@Dk@H{ABk@FeA@S@Q@U@YDk@Bm@Dm@Bk@HyANgCBe@Ey@AeARqC@g@FkABm@HqBj@gGR{A@UNeAj@iIB[Fy@HmAJaA@ORuBDQ@KDk@HoALmBRgD?A?ADk@D{@"},"start_location":{"lat":-37.8176888,"lng":144.6752072},"travel_mode":"DRIVING"}],"traffic_speed_entry":[],"via_waypoint":[]},{"distance":{"text":"26.9 km","value":26912},"duration":{"text":"24 mins","value":1466},"end_address":"324 Holden Rd, Diggers Rest VIC 3427, Australia","end_location":{"lat":-37.6602173,"lng":144.718921},"start_address":"26 Wreath Dr, Tarneit VIC 3029, Australia","start_location":{"lat":-37.8209937,"lng":144.7034144},"steps":[{"distance":{"text":"0.9 km","value":858},"duration":{"text":"1 min","value":79},"end_location":{"lat":-37.8197488,"lng":144.6938014},"html_instructions":"Head <b>west</b> on <b>Dohertys Rd</b> towards <b>Settlement Rd</b>","polyline":{"points":"d|yeFikerZEz@Ej@?@?@SfDMlBInAEj@AJ?VGr@?BIzAOxBGx@CZo@bIAFOdAAXQzAW~BMjAIzA?P@rAEdB"},"start_location":{"lat":-37.8209937,"lng":144.7034144},"travel_mode":"DRIVING"},{"distance":{"text":"8.1 km","value":8120},"duration":{"text":"8 mins","value":493},"end_location":{"lat":-37.7481474,"lng":144.7012541},"html_instructions":"Turn <b>right</b> onto <b>Derrimut Rd</b>/<wbr/><b>C702</b>","maneuver":"turn-right","polyline":{"points":"ltyeFgocrZCf@WCcAQ_AOu@Qa@I[M{AUuAMA?_CMgBGuABAAuCEkAMw@IoJ{@wl@iFu@GA?o@GsNgAoPsAKAmTmB}Jy@}AM}@IcBQiFc@wAMc@CIA{Ea@{E_@aCU}D]{Fe@oFc@oCUy@GiAKiFa@qGg@sJw@QAcAIwBQoBOSA_AI_AGiAI}@GyPqAwL}@cSuAc@EaIi@c@Ec@CuAKqHk@qE]kAKsDYA?_@EgAKyFm@WCKAa@ESAs@Ic@Ec@Ea@Ec@Ec@Ec@Ec@EiBSgAKiBQkBQ{BUc@EgAMeAKgAKqAMcAQgAIc@EEAc@Ec@GUCMAW?W?W@A?[FC?]JCBOFWNWTYZ?@QTGFADeAzAA@IPABs@x@CDGFGDSLC@YNMFk@NgAr@EFCDCDID]Vk@b@ONOT"},"start_location":{"lat":-37.8197488,"lng":144.6938014},"travel_mode":"DRIVING"},{"distance":{"text":"0.9 km","value":859},"duration":{"text":"1 min","value":47},"end_location":{"lat":-37.7432412,"lng":144.6946266},"html_instructions":"At the roundabout, take the <b>1st</b> exit onto the <b>National Hwy M8</b> ramp to <b>Melton</b>/<wbr/><b>Ballarat</b>","maneuver":"roundabout-left","polyline":{"points":"|tkeFy}drZAFAFAFADCDCDCDEBCBKBGNGJIRCHGZMb@K\\MRKJKJKFSFQBi@@]@{@@i@DO@QBKBOBSHQFQLUNSRMJILKNKLMVKVK\\KVENOf@[`AKToAxDW~@K^M^m@bBaBtESV"},"start_location":{"lat":-37.7481474,"lng":144.7012541},"travel_mode":"DRIVING"},{"distance":{"text":"3.9 km","value":3869},"duration":{"text":"3 mins","value":152},"end_location":{"lat":-37.7265614,"lng":144.6563393},"html_instructions":"Merge onto <b>National Highway M8</b>","maneuver":"merge","polyline":{"points":"fvjeFmtcrZ}B`IyGlUkBtG_AjDg@nBc@rBgA~FETWnAeAlFg@~Bc@hBqCtLuA|FwArGmAnFYnAu@|Cw@fDMh@U`AEPMh@Mh@Mh@Mh@GZELWfA]pAAHa@zAYt@KVg@jAA@_AhBuApCUb@Ub@Ub@k@fAi@fAUb@Ub@Sd@Ub@Ub@Ub@O\\CFUb@Ub@Ub@Sb@k@hAUb@Sb@Ud@c@z@Ub@Sd@Ub@i@hAUb@i@hAUb@IN_BfDu@zAi@fAc@~@aAlBk@fAUb@Ub@GNKRUd@Ub@_BbDIPmB|Dk@hAYn@"},"start_location":{"lat":-37.7432412,"lng":144.6946266},"travel_mode":"DRIVING"},{"distance":{"text":"0.5 km","value":471},"duration":{"text":"1 min","value":34},"end_location":{"lat":-37.725743,"lng":144.6513337},"html_instructions":"Take the <b>Leakes Rd</b> exit","maneuver":"ramp-left","polyline":{"points":"~mgeFce|qZCTOf@e@jAYt@k@lAe@vAKh@Kp@M|A?HAz@?f@Bt@Bp@Hz@@RRnC@R"},"start_location":{"lat":-37.7265614,"lng":144.6563393},"travel_mode":"DRIVING"},{"distance":{"text":"4.9 km","value":4880},"duration":{"text":"5 mins","value":277},"end_location":{"lat":-37.6831809,"lng":144.6612481},"html_instructions":"Turn <b>right</b> onto <b>Leakes Rd</b>","maneuver":"turn-right","polyline":{"points":"zhgeFye{qZBRk@Di@Dg@@_A?SAWEc@Eg@Ke@Kk@OYIg@O_@Oa@QWKYO[SYQa@]iCcCg@c@wAuAe@e@uAiASSuAu@a@U]KSGKCe@I]AA@A@A@A@A@A@A?A@C?A@A?A?A?EAA?AAA?AACAAAAA?AAAAA?AKCME]C}@IeBSs@IcE]g@GiAIG?aAI_CO_CYIIeAKuD]gLgAa@EkGk@iBOo@IeCOeDQ_[gBoCQcAEc@EWCSCQCA?UEc@KyA_@c@Ku@U_Cs@a@MUGWEYGa@EiAMoBUC?mDa@c@EqBW_AKc@EeAMaEe@kBQgLkAk@I}@M}C]cBS{@Ka@GC?aFm@gAMwEi@{De@_CWeEc@kDc@"},"start_location":{"lat":-37.725743,"lng":144.6513337},"travel_mode":"DRIVING"},{"distance":{"text":"3.2 km","value":3187},"duration":{"text":"3 mins","value":157},"end_location":{"lat":-37.68709339999999,"lng":144.6969929},"html_instructions":"Turn <b>right</b> onto <b>Melton Hwy</b>/<wbr/><b>C754</b>","maneuver":"turn-right","polyline":{"points":"z~~dFyc}qZQAHmAr@yMJQd@oJx@mNPsCf@uIPmCZmGx@{O\\kGPaDd@cJ`@_IT{EbAsSRyCD{@L_Cb@iITeEFcAPeDn@qL\\aFJaBAi@`@wGJeB"},"start_location":{"lat":-37.6831809,"lng":144.6612481},"travel_mode":"DRIVING"},{"distance":{"text":"3.2 km","value":3228},"duration":{"text":"2 mins","value":144},"end_location":{"lat":-37.6584785,"lng":144.7027153},"html_instructions":"At the roundabout, take the <b>1st</b> exit onto <b>Plumpton Rd</b>","maneuver":"roundabout-left","polyline":{"points":"hw_eFecdrZCAAAACAAAAACAAAC?CAA?Ck@Q]G_BWUGOC}AQuC[wBWaBS_BS_BSqC_@cBS_BS{@Km@Iq@Ku@Iw@Ku@KMAmBWyBW}Eo@YE]Eq@KeC]aGu@kC]oBW{@Ky@Ku@Is@Gu@IUC}@Kk@EQC_CUoBSw@GcAK{@IiAKiBQkBQoAM[EEA}KeAgGo@c@GuHw@aBQcBQkAOuBSaD[cBO_@C"},"start_location":{"lat":-37.68709339999999,"lng":144.6969929},"travel_mode":"DRIVING"},{"distance":{"text":"1.4 km","value":1440},"duration":{"text":"1 min","value":83},"end_location":{"lat":-37.6602173,"lng":144.718921},"html_instructions":"Turn <b>right</b> onto <b>Holden Rd</b>","maneuver":"turn-right","polyline":{"points":"ndzdF_gerZBsDLgCt@cO@[VqD\\{FF}@PuDDk@XyFr@aMHyAdAgRTaEDk@@Q"},"start_location":{"lat":-37.6584785,"lng":144.7027153},"travel_mode":"DRIVING"}],"traffic_speed_entry":[],"via_waypoint":[]},{"distance":{"text":"1 m","value":0},"duration":{"text":"1 min","value":0},"end_address":"324 Holden Rd, Diggers Rest VIC 3427, Australia","end_location":{"lat":-37.6602173,"lng":144.718921},"start_address":"324 Holden Rd, Diggers Rest VIC 3427, Australia","start_location":{"lat":-37.6602173,"lng":144.718921},"steps":[{"distance":{"text":"1 m","value":0},"duration":{"text":"1 min","value":0},"end_location":{"lat":-37.6602173,"lng":144.718921},"html_instructions":"Head on <b>Holden Rd</b>","polyline":{"points":"jozdFglhrZ"},"start_location":{"lat":-37.6602173,"lng":144.718921},"travel_mode":"DRIVING"}],"traffic_speed_entry":[],"via_waypoint":[]},{"distance":{"text":"144 km","value":143778},"duration":{"text":"1 hour 34 mins","value":5631},